{
  "metadata": {
    "title": "Demo Australian Youth Services Collection",
    "total_services": 5,
    "generated_at": "2025-07-08T02:17:34.859Z",
    "collection_method": "demonstration"
  },
  "services": [
    {
      "id": "d9ba59ec-f84b-4527-bbd0-e27c001582ce",
      "name": "Brisbane Youth Legal Service",
      "description": "Free legal aid for young people aged 12-25 in Brisbane",
      "organization": {
        "name": "Brisbane Youth Legal Aid",
        "type": "non_profit"
      },
      "location": {
        "address_line_1": "123 Queen Street",
        "suburb": "Brisbane City",
        "city": "Brisbane",
        "state": "QLD",
        "postcode": "4000",
        "coordinates": {
          "latitude": -27.4698,
          "longitude": 153.0251
        }
      },
      "contact": {
        "phone": {
          "primary": "(07) 3000 1234"
        },
        "email": {
          "primary": "info@brisbaneyouthlegal.org.au"
        },
        "website": "https://brisbaneyouthlegal.org.au"
      },
      "categories": [
        "legal_aid",
        "youth_development"
      ],
      "youth_specific": true,
      "data_source": {
        "source_name": "Government Portal",
        "source_type": "government_portal"
      },
      "status": "active"
    },
    {
      "id": "c1f73898-b04d-4272-a973-b0a75d81b3c7",
      "name": "Sydney Community Mental Health",
      "description": "Mental health support and counselling services for youth",
      "organization": {
        "name": "Sydney Mental Health Centre",
        "type": "government"
      },
      "location": {
        "address_line_1": "456 George Street",
        "suburb": "Sydney",
        "city": "Sydney",
        "state": "NSW",
        "postcode": "2000",
        "coordinates": {
          "latitude": -33.8688,
          "longitude": 151.2093
        }
      },
      "contact": {
        "phone": {
          "primary": "(02) 9000 5678"
        },
        "email": {
          "primary": "help@sydneymentalhealth.nsw.gov.au"
        },
        "website": "https://sydneymentalhealth.nsw.gov.au"
      },
      "categories": [
        "mental_health",
        "counselling"
      ],
      "youth_specific": true,
      "data_source": {
        "source_name": "NSW Data Portal",
        "source_type": "government_portal"
      },
      "status": "active"
    },
    {
      "id": "6430158f-7c55-4aa2-99c8-f457bb11483d",
      "name": "Melbourne Youth Housing Support",
      "description": "Emergency and transitional housing for homeless youth",
      "organization": {
        "name": "Melbourne Housing Services",
        "type": "non_profit"
      },
      "location": {
        "address_line_1": "789 Collins Street",
        "suburb": "Melbourne",
        "city": "Melbourne",
        "state": "VIC",
        "postcode": "3000",
        "coordinates": {
          "latitude": -37.8136,
          "longitude": 144.9631
        }
      },
      "contact": {
        "phone": {
          "primary": "(03) 9000 9012"
        },
        "email": {
          "primary": "intake@melbournehousing.org.au"
        },
        "website": "https://melbournehousing.org.au"
      },
      "categories": [
        "housing",
        "crisis_support"
      ],
      "youth_specific": true,
      "data_source": {
        "source_name": "VIC Data Portal",
        "source_type": "government_portal"
      },
      "status": "active"
    },
    {
      "id": "7dfe5fc5-6707-4e97-ade1-3360e0592842",
      "name": "Perth Indigenous Youth Services",
      "description": "Culturally appropriate services for Aboriginal and Torres Strait Islander youth",
      "organization": {
        "name": "Perth Aboriginal Youth Centre",
        "type": "indigenous"
      },
      "location": {
        "address_line_1": "321 Murray Street",
        "suburb": "Perth",
        "city": "Perth",
        "state": "WA",
        "postcode": "6000",
        "coordinates": {
          "latitude": -31.9505,
          "longitude": 115.8605
        }
      },
      "contact": {
        "phone": {
          "primary": "(08) 9000 3456"
        },
        "email": {
          "primary": "services@perthindigenousyouth.org.au"
        },
        "website": "https://perthindigenousyouth.org.au"
      },
      "categories": [
        "indigenous_services",
        "youth_development",
        "cultural_support"
      ],
      "youth_specific": true,
      "indigenous_specific": true,
      "data_source": {
        "source_name": "WA Data Portal",
        "source_type": "government_portal"
      },
      "status": "active"
    },
    {
      "id": "ece94cb9-f410-4aaa-965b-03af763aae37",
      "name": "Adelaide Family Court Support",
      "description": "Support services for young people involved in family court proceedings",
      "organization": {
        "name": "Adelaide Family Services",
        "type": "government"
      },
      "location": {
        "address_line_1": "147 North Terrace",
        "suburb": "Adelaide",
        "city": "Adelaide",
        "state": "SA",
        "postcode": "5000",
        "coordinates": {
          "latitude": -34.9285,
          "longitude": 138.6007
        }
      },
      "contact": {
        "phone": {
          "primary": "(08) 8000 7890"
        },
        "email": {
          "primary": "support@adelaidefamily.sa.gov.au"
        },
        "website": "https://adelaidefamily.sa.gov.au"
      },
      "categories": [
        "family_support",
        "court_support",
        "legal_aid"
      ],
      "youth_specific": true,
      "data_source": {
        "source_name": "SA Data Portal",
        "source_type": "government_portal"
      },
      "status": "active"
    }
  ]
}