{
  "timestamp": "2025-07-08T01:33:30.681Z",
  "stats": {
    "found": 62,
    "processed": 62,
    "errors": 0
  },
  "services": [
    {
      "id": "bc7b53d1-9dfd-42eb-8112-11bab3d83050",
      "organization_id": "0b9d67b3-1a4a-4997-a330-ba92caf02a34",
      "name": "Brisbane CBD Youth Legal Service",
      "description": "Free legal representation and advice for young people aged 10-25. Services include criminal law representation, police interviews, court representation, bail applications, and legal education.",
      "categories": [
        "legal_aid",
        "court_support",
        "criminal_law"
      ],
      "keywords": [
        "legal",
        "court",
        "lawyer",
        "criminal",
        "youth",
        "bail",
        "police"
      ],
      "minimum_age": 10,
      "maximum_age": 25,
      "youth_specific": true,
      "indigenous_specific": false,
      "data_source": "legal_services_expanded",
      "status": "active",
      "location": {
        "name": "Brisbane CBD",
        "address": "44 Herschel Street, Brisbane QLD 4000",
        "city": "Brisbane",
        "state": "QLD",
        "postcode": "4000",
        "region": "brisbane",
        "coordinates": null
      },
      "contact": {
        "phone": "1300 651 188",
        "email": "brisbane.cbd@legalaid.qld.gov.au"
      }
    },
    {
      "id": "a371af05-02ad-456e-8d6f-fef3982959f8",
      "organization_id": "0b9d67b3-1a4a-4997-a330-ba92caf02a34",
      "name": "South Brisbane Youth Legal Service",
      "description": "Free legal representation and advice for young people aged 10-25. Services include criminal law representation, police interviews, court representation, bail applications, and legal education.",
      "categories": [
        "legal_aid",
        "court_support",
        "criminal_law"
      ],
      "keywords": [
        "legal",
        "court",
        "lawyer",
        "criminal",
        "youth",
        "bail",
        "police"
      ],
      "minimum_age": 10,
      "maximum_age": 25,
      "youth_specific": true,
      "indigenous_specific": false,
      "data_source": "legal_services_expanded",
      "status": "active",
      "location": {
        "name": "South Brisbane",
        "address": "7 Peel Street, South Brisbane QLD 4101",
        "city": "Brisbane",
        "state": "QLD",
        "postcode": "4101",
        "region": "brisbane",
        "coordinates": null
      },
      "contact": {
        "phone": "1300 651 188",
        "email": "south.brisbane@legalaid.qld.gov.au"
      }
    },
    {
      "id": "98ea1ff6-5d1d-4374-b13e-f8504aa3f6f8",
      "organization_id": "0b9d67b3-1a4a-4997-a330-ba92caf02a34",
      "name": "Caboolture Youth Legal Service",
      "description": "Free legal representation and advice for young people aged 10-25. Services include criminal law representation, police interviews, court representation, bail applications, and legal education.",
      "categories": [
        "legal_aid",
        "court_support",
        "criminal_law"
      ],
      "keywords": [
        "legal",
        "court",
        "lawyer",
        "criminal",
        "youth",
        "bail",
        "police"
      ],
      "minimum_age": 10,
      "maximum_age": 25,
      "youth_specific": true,
      "indigenous_specific": false,
      "data_source": "legal_services_expanded",
      "status": "active",
      "location": {
        "name": "Caboolture",
        "address": "79 King Street, Caboolture QLD 4510",
        "city": "Queensland",
        "state": "QLD",
        "postcode": "4510",
        "region": "moreton_bay",
        "coordinates": null
      },
      "contact": {
        "phone": "1300 651 188",
        "email": "caboolture@legalaid.qld.gov.au"
      }
    },
    {
      "id": "54beb5a3-85e6-4b07-a10f-ccd1cb0bb79a",
      "organization_id": "0b9d67b3-1a4a-4997-a330-ba92caf02a34",
      "name": "Beenleigh Youth Legal Service",
      "description": "Free legal representation and advice for young people aged 10-25. Services include criminal law representation, police interviews, court representation, bail applications, and legal education.",
      "categories": [
        "legal_aid",
        "court_support",
        "criminal_law"
      ],
      "keywords": [
        "legal",
        "court",
        "lawyer",
        "criminal",
        "youth",
        "bail",
        "police"
      ],
      "minimum_age": 10,
      "maximum_age": 25,
      "youth_specific": true,
      "indigenous_specific": false,
      "data_source": "legal_services_expanded",
      "status": "active",
      "location": {
        "name": "Beenleigh",
        "address": "Shop 8, 76-106 Main Street, Beenleigh QLD 4207",
        "city": "Queensland",
        "state": "QLD",
        "postcode": "4207",
        "region": "logan",
        "coordinates": null
      },
      "contact": {
        "phone": "1300 651 188",
        "email": "beenleigh@legalaid.qld.gov.au"
      }
    },
    {
      "id": "4826649d-4ebf-41dc-9125-d89424b1a49d",
      "organization_id": "0b9d67b3-1a4a-4997-a330-ba92caf02a34",
      "name": "Cleveland Youth Legal Service",
      "description": "Free legal representation and advice for young people aged 10-25. Services include criminal law representation, police interviews, court representation, bail applications, and legal education.",
      "categories": [
        "legal_aid",
        "court_support",
        "criminal_law"
      ],
      "keywords": [
        "legal",
        "court",
        "lawyer",
        "criminal",
        "youth",
        "bail",
        "police"
      ],
      "minimum_age": 10,
      "maximum_age": 25,
      "youth_specific": true,
      "indigenous_specific": false,
      "data_source": "legal_services_expanded",
      "status": "active",
      "location": {
        "name": "Cleveland",
        "address": "29 Middle Street, Cleveland QLD 4163",
        "city": "Queensland",
        "state": "QLD",
        "postcode": "4163",
        "region": "redlands",
        "coordinates": null
      },
      "contact": {
        "phone": "1300 651 188",
        "email": "cleveland@legalaid.qld.gov.au"
      }
    },
    {
      "id": "34b7ea2d-9976-4190-a509-f62a48eb9432",
      "organization_id": "0b9d67b3-1a4a-4997-a330-ba92caf02a34",
      "name": "Ipswich Youth Legal Service",
      "description": "Free legal representation and advice for young people aged 10-25. Services include criminal law representation, police interviews, court representation, bail applications, and legal education.",
      "categories": [
        "legal_aid",
        "court_support",
        "criminal_law"
      ],
      "keywords": [
        "legal",
        "court",
        "lawyer",
        "criminal",
        "youth",
        "bail",
        "police"
      ],
      "minimum_age": 10,
      "maximum_age": 25,
      "youth_specific": true,
      "indigenous_specific": false,
      "data_source": "legal_services_expanded",
      "status": "active",
      "location": {
        "name": "Ipswich",
        "address": "8 Roderick Street, Ipswich QLD 4305",
        "city": "Ipswich",
        "state": "QLD",
        "postcode": "4305",
        "region": "ipswich",
        "coordinates": null
      },
      "contact": {
        "phone": "1300 651 188",
        "email": "ipswich@legalaid.qld.gov.au"
      }
    },
    {
      "id": "e6409e25-0ac3-4126-85f0-e5d9b7bfe8e2",
      "organization_id": "0b9d67b3-1a4a-4997-a330-ba92caf02a34",
      "name": "Southport Youth Legal Service",
      "description": "Free legal representation and advice for young people aged 10-25. Services include criminal law representation, police interviews, court representation, bail applications, and legal education.",
      "categories": [
        "legal_aid",
        "court_support",
        "criminal_law"
      ],
      "keywords": [
        "legal",
        "court",
        "lawyer",
        "criminal",
        "youth",
        "bail",
        "police"
      ],
      "minimum_age": 10,
      "maximum_age": 25,
      "youth_specific": true,
      "indigenous_specific": false,
      "data_source": "legal_services_expanded",
      "status": "active",
      "location": {
        "name": "Southport",
        "address": "7 Bay Street, Southport QLD 4215",
        "city": "Queensland",
        "state": "QLD",
        "postcode": "4215",
        "region": "gold_coast",
        "coordinates": null
      },
      "contact": {
        "phone": "1300 651 188",
        "email": "southport@legalaid.qld.gov.au"
      }
    },
    {
      "id": "8ca0439f-bcc9-418c-825b-acf7249e6f4b",
      "organization_id": "0b9d67b3-1a4a-4997-a330-ba92caf02a34",
      "name": "Robina Youth Legal Service",
      "description": "Free legal representation and advice for young people aged 10-25. Services include criminal law representation, police interviews, court representation, bail applications, and legal education.",
      "categories": [
        "legal_aid",
        "court_support",
        "criminal_law"
      ],
      "keywords": [
        "legal",
        "court",
        "lawyer",
        "criminal",
        "youth",
        "bail",
        "police"
      ],
      "minimum_age": 10,
      "maximum_age": 25,
      "youth_specific": true,
      "indigenous_specific": false,
      "data_source": "legal_services_expanded",
      "status": "active",
      "location": {
        "name": "Robina",
        "address": "Shop 3019 Robina Town Centre, Robina QLD 4226",
        "city": "Queensland",
        "state": "QLD",
        "postcode": "4226",
        "region": "gold_coast",
        "coordinates": null
      },
      "contact": {
        "phone": "1300 651 188",
        "email": "robina@legalaid.qld.gov.au"
      }
    },
    {
      "id": "10dadaf4-fd4c-4bdd-ad65-6e8e63fae43c",
      "organization_id": "0b9d67b3-1a4a-4997-a330-ba92caf02a34",
      "name": "Maroochydore Youth Legal Service",
      "description": "Free legal representation and advice for young people aged 10-25. Services include criminal law representation, police interviews, court representation, bail applications, and legal education.",
      "categories": [
        "legal_aid",
        "court_support",
        "criminal_law"
      ],
      "keywords": [
        "legal",
        "court",
        "lawyer",
        "criminal",
        "youth",
        "bail",
        "police"
      ],
      "minimum_age": 10,
      "maximum_age": 25,
      "youth_specific": true,
      "indigenous_specific": false,
      "data_source": "legal_services_expanded",
      "status": "active",
      "location": {
        "name": "Maroochydore",
        "address": "1/15 Ocean Street, Maroochydore QLD 4558",
        "city": "Queensland",
        "state": "QLD",
        "postcode": "4558",
        "region": "sunshine_coast",
        "coordinates": null
      },
      "contact": {
        "phone": "1300 651 188",
        "email": "maroochydore@legalaid.qld.gov.au"
      }
    },
    {
      "id": "839c9334-83ed-4bf9-8060-ccf5cd66be95",
      "organization_id": "0b9d67b3-1a4a-4997-a330-ba92caf02a34",
      "name": "Nambour Youth Legal Service",
      "description": "Free legal representation and advice for young people aged 10-25. Services include criminal law representation, police interviews, court representation, bail applications, and legal education.",
      "categories": [
        "legal_aid",
        "court_support",
        "criminal_law"
      ],
      "keywords": [
        "legal",
        "court",
        "lawyer",
        "criminal",
        "youth",
        "bail",
        "police"
      ],
      "minimum_age": 10,
      "maximum_age": 25,
      "youth_specific": true,
      "indigenous_specific": false,
      "data_source": "legal_services_expanded",
      "status": "active",
      "location": {
        "name": "Nambour",
        "address": "5/80 Currie Street, Nambour QLD 4560",
        "city": "Queensland",
        "state": "QLD",
        "postcode": "4560",
        "region": "sunshine_coast",
        "coordinates": null
      },
      "contact": {
        "phone": "1300 651 188",
        "email": "nambour@legalaid.qld.gov.au"
      }
    },
    {
      "id": "e06082e2-ea51-492d-8868-1e17c4885bfa",
      "organization_id": "0b9d67b3-1a4a-4997-a330-ba92caf02a34",
      "name": "Toowoomba Youth Legal Service",
      "description": "Free legal representation and advice for young people aged 10-25. Services include criminal law representation, police interviews, court representation, bail applications, and legal education.",
      "categories": [
        "legal_aid",
        "court_support",
        "criminal_law"
      ],
      "keywords": [
        "legal",
        "court",
        "lawyer",
        "criminal",
        "youth",
        "bail",
        "police"
      ],
      "minimum_age": 10,
      "maximum_age": 25,
      "youth_specific": true,
      "indigenous_specific": false,
      "data_source": "legal_services_expanded",
      "status": "active",
      "location": {
        "name": "Toowoomba",
        "address": "154 Hume Street, Toowoomba QLD 4350",
        "city": "Toowoomba",
        "state": "QLD",
        "postcode": "4350",
        "region": "toowoomba",
        "coordinates": null
      },
      "contact": {
        "phone": "1300 651 188",
        "email": "toowoomba@legalaid.qld.gov.au"
      }
    },
    {
      "id": "907a6434-b2ce-4bfa-b661-5c357d73dd72",
      "organization_id": "0b9d67b3-1a4a-4997-a330-ba92caf02a34",
      "name": "Warwick Youth Legal Service",
      "description": "Free legal representation and advice for young people aged 10-25. Services include criminal law representation, police interviews, court representation, bail applications, and legal education.",
      "categories": [
        "legal_aid",
        "court_support",
        "criminal_law"
      ],
      "keywords": [
        "legal",
        "court",
        "lawyer",
        "criminal",
        "youth",
        "bail",
        "police"
      ],
      "minimum_age": 10,
      "maximum_age": 25,
      "youth_specific": true,
      "indigenous_specific": false,
      "data_source": "legal_services_expanded",
      "status": "active",
      "location": {
        "name": "Warwick",
        "address": "68 Palmerin Street, Warwick QLD 4370",
        "city": "Queensland",
        "state": "QLD",
        "postcode": "4370",
        "region": "southern_downs",
        "coordinates": null
      },
      "contact": {
        "phone": "1300 651 188",
        "email": "warwick@legalaid.qld.gov.au"
      }
    },
    {
      "id": "ce035c1d-45fc-41d4-a3fc-f418e5c7d7be",
      "organization_id": "0b9d67b3-1a4a-4997-a330-ba92caf02a34",
      "name": "Cairns Youth Legal Service",
      "description": "Free legal representation and advice for young people aged 10-25. Services include criminal law representation, police interviews, court representation, bail applications, and legal education.",
      "categories": [
        "legal_aid",
        "court_support",
        "criminal_law"
      ],
      "keywords": [
        "legal",
        "court",
        "lawyer",
        "criminal",
        "youth",
        "bail",
        "police"
      ],
      "minimum_age": 10,
      "maximum_age": 25,
      "youth_specific": true,
      "indigenous_specific": false,
      "data_source": "legal_services_expanded",
      "status": "active",
      "location": {
        "name": "Cairns",
        "address": "1/15 Lake Street, Cairns QLD 4870",
        "city": "Cairns",
        "state": "QLD",
        "postcode": "4870",
        "region": "cairns",
        "coordinates": null
      },
      "contact": {
        "phone": "1300 651 188",
        "email": "cairns@legalaid.qld.gov.au"
      }
    },
    {
      "id": "0225025f-93c8-4559-9f04-39a0dcd4a6f1",
      "organization_id": "0b9d67b3-1a4a-4997-a330-ba92caf02a34",
      "name": "Townsville Youth Legal Service",
      "description": "Free legal representation and advice for young people aged 10-25. Services include criminal law representation, police interviews, court representation, bail applications, and legal education.",
      "categories": [
        "legal_aid",
        "court_support",
        "criminal_law"
      ],
      "keywords": [
        "legal",
        "court",
        "lawyer",
        "criminal",
        "youth",
        "bail",
        "police"
      ],
      "minimum_age": 10,
      "maximum_age": 25,
      "youth_specific": true,
      "indigenous_specific": false,
      "data_source": "legal_services_expanded",
      "status": "active",
      "location": {
        "name": "Townsville",
        "address": "143 Walker Street, Townsville QLD 4810",
        "city": "Townsville",
        "state": "QLD",
        "postcode": "4810",
        "region": "townsville",
        "coordinates": null
      },
      "contact": {
        "phone": "1300 651 188",
        "email": "townsville@legalaid.qld.gov.au"
      }
    },
    {
      "id": "dd0e9932-c5f5-4fd0-920f-6ac9b874b2e8",
      "organization_id": "0b9d67b3-1a4a-4997-a330-ba92caf02a34",
      "name": "Mackay Youth Legal Service",
      "description": "Free legal representation and advice for young people aged 10-25. Services include criminal law representation, police interviews, court representation, bail applications, and legal education.",
      "categories": [
        "legal_aid",
        "court_support",
        "criminal_law"
      ],
      "keywords": [
        "legal",
        "court",
        "lawyer",
        "criminal",
        "youth",
        "bail",
        "police"
      ],
      "minimum_age": 10,
      "maximum_age": 25,
      "youth_specific": true,
      "indigenous_specific": false,
      "data_source": "legal_services_expanded",
      "status": "active",
      "location": {
        "name": "Mackay",
        "address": "17 Brisbane Street, Mackay QLD 4740",
        "city": "Brisbane",
        "state": "QLD",
        "postcode": "4740",
        "region": "mackay",
        "coordinates": null
      },
      "contact": {
        "phone": "1300 651 188",
        "email": "mackay@legalaid.qld.gov.au"
      }
    },
    {
      "id": "7f63b45e-9839-411d-92e8-13284c7462d5",
      "organization_id": "0b9d67b3-1a4a-4997-a330-ba92caf02a34",
      "name": "Rockhampton Youth Legal Service",
      "description": "Free legal representation and advice for young people aged 10-25. Services include criminal law representation, police interviews, court representation, bail applications, and legal education.",
      "categories": [
        "legal_aid",
        "court_support",
        "criminal_law"
      ],
      "keywords": [
        "legal",
        "court",
        "lawyer",
        "criminal",
        "youth",
        "bail",
        "police"
      ],
      "minimum_age": 10,
      "maximum_age": 25,
      "youth_specific": true,
      "indigenous_specific": false,
      "data_source": "legal_services_expanded",
      "status": "active",
      "location": {
        "name": "Rockhampton",
        "address": "35 Fitzroy Street, Rockhampton QLD 4700",
        "city": "Rockhampton",
        "state": "QLD",
        "postcode": "4700",
        "region": "rockhampton",
        "coordinates": null
      },
      "contact": {
        "phone": "1300 651 188",
        "email": "rockhampton@legalaid.qld.gov.au"
      }
    },
    {
      "id": "26b2768e-801b-460a-b050-bac75b08fb5b",
      "organization_id": "0b9d67b3-1a4a-4997-a330-ba92caf02a34",
      "name": "Bundaberg Youth Legal Service",
      "description": "Free legal representation and advice for young people aged 10-25. Services include criminal law representation, police interviews, court representation, bail applications, and legal education.",
      "categories": [
        "legal_aid",
        "court_support",
        "criminal_law"
      ],
      "keywords": [
        "legal",
        "court",
        "lawyer",
        "criminal",
        "youth",
        "bail",
        "police"
      ],
      "minimum_age": 10,
      "maximum_age": 25,
      "youth_specific": true,
      "indigenous_specific": false,
      "data_source": "legal_services_expanded",
      "status": "active",
      "location": {
        "name": "Bundaberg",
        "address": "3/11 Targo Street, Bundaberg QLD 4670",
        "city": "Bundaberg",
        "state": "QLD",
        "postcode": "4670",
        "region": "bundaberg",
        "coordinates": null
      },
      "contact": {
        "phone": "1300 651 188",
        "email": "bundaberg@legalaid.qld.gov.au"
      }
    },
    {
      "id": "9cd2093a-460d-4540-a124-d72bd5296bee",
      "organization_id": "0b9d67b3-1a4a-4997-a330-ba92caf02a34",
      "name": "Hervey Bay Youth Legal Service",
      "description": "Free legal representation and advice for young people aged 10-25. Services include criminal law representation, police interviews, court representation, bail applications, and legal education.",
      "categories": [
        "legal_aid",
        "court_support",
        "criminal_law"
      ],
      "keywords": [
        "legal",
        "court",
        "lawyer",
        "criminal",
        "youth",
        "bail",
        "police"
      ],
      "minimum_age": 10,
      "maximum_age": 25,
      "youth_specific": true,
      "indigenous_specific": false,
      "data_source": "legal_services_expanded",
      "status": "active",
      "location": {
        "name": "Hervey Bay",
        "address": "6/414 The Esplanade, Hervey Bay QLD 4655",
        "city": "Hervey Bay",
        "state": "QLD",
        "postcode": "4655",
        "region": "fraser_coast",
        "coordinates": null
      },
      "contact": {
        "phone": "1300 651 188",
        "email": "hervey.bay@legalaid.qld.gov.au"
      }
    },
    {
      "id": "7b78b473-2960-44f9-909b-5393d882fe9b",
      "organization_id": "0b9d67b3-1a4a-4997-a330-ba92caf02a34",
      "name": "Maryborough Youth Legal Service",
      "description": "Free legal representation and advice for young people aged 10-25. Services include criminal law representation, police interviews, court representation, bail applications, and legal education.",
      "categories": [
        "legal_aid",
        "court_support",
        "criminal_law"
      ],
      "keywords": [
        "legal",
        "court",
        "lawyer",
        "criminal",
        "youth",
        "bail",
        "police"
      ],
      "minimum_age": 10,
      "maximum_age": 25,
      "youth_specific": true,
      "indigenous_specific": false,
      "data_source": "legal_services_expanded",
      "status": "active",
      "location": {
        "name": "Maryborough",
        "address": "200 Adelaide Street, Maryborough QLD 4650",
        "city": "Queensland",
        "state": "QLD",
        "postcode": "4650",
        "region": "fraser_coast",
        "coordinates": null
      },
      "contact": {
        "phone": "1300 651 188",
        "email": "maryborough@legalaid.qld.gov.au"
      }
    },
    {
      "id": "f76e6398-f128-4fd2-b1df-9f42b8f275c8",
      "organization_id": "0b9d67b3-1a4a-4997-a330-ba92caf02a34",
      "name": "Mount Isa Youth Legal Service",
      "description": "Free legal representation and advice for young people aged 10-25. Services include criminal law representation, police interviews, court representation, bail applications, and legal education.",
      "categories": [
        "legal_aid",
        "court_support",
        "criminal_law"
      ],
      "keywords": [
        "legal",
        "court",
        "lawyer",
        "criminal",
        "youth",
        "bail",
        "police"
      ],
      "minimum_age": 10,
      "maximum_age": 25,
      "youth_specific": true,
      "indigenous_specific": false,
      "data_source": "legal_services_expanded",
      "status": "active",
      "location": {
        "name": "Mount Isa",
        "address": "12 Simpson Street, Mount Isa QLD 4825",
        "city": "Mount Isa",
        "state": "QLD",
        "postcode": "4825",
        "region": "mount_isa",
        "coordinates": null
      },
      "contact": {
        "phone": "1300 651 188",
        "email": "mount.isa@legalaid.qld.gov.au"
      }
    },
    {
      "id": "7e035efe-6a07-4f44-9010-9b35d4a6f551",
      "organization_id": "0b9d67b3-1a4a-4997-a330-ba92caf02a34",
      "name": "Roma Youth Legal Service",
      "description": "Free legal representation and advice for young people aged 10-25. Services include criminal law representation, police interviews, court representation, bail applications, and legal education.",
      "categories": [
        "legal_aid",
        "court_support",
        "criminal_law"
      ],
      "keywords": [
        "legal",
        "court",
        "lawyer",
        "criminal",
        "youth",
        "bail",
        "police"
      ],
      "minimum_age": 10,
      "maximum_age": 25,
      "youth_specific": true,
      "indigenous_specific": false,
      "data_source": "legal_services_expanded",
      "status": "active",
      "location": {
        "name": "Roma",
        "address": "92 McDowall Street, Roma QLD 4455",
        "city": "Queensland",
        "state": "QLD",
        "postcode": "4455",
        "region": "roma",
        "coordinates": null
      },
      "contact": {
        "phone": "1300 651 188",
        "email": "roma@legalaid.qld.gov.au"
      }
    },
    {
      "id": "98b59ff1-2ae2-41e9-8830-70a2b28cd7b6",
      "organization_id": "0b9d67b3-1a4a-4997-a330-ba92caf02a34",
      "name": "Charleville Youth Legal Service",
      "description": "Free legal representation and advice for young people aged 10-25. Services include criminal law representation, police interviews, court representation, bail applications, and legal education.",
      "categories": [
        "legal_aid",
        "court_support",
        "criminal_law"
      ],
      "keywords": [
        "legal",
        "court",
        "lawyer",
        "criminal",
        "youth",
        "bail",
        "police"
      ],
      "minimum_age": 10,
      "maximum_age": 25,
      "youth_specific": true,
      "indigenous_specific": false,
      "data_source": "legal_services_expanded",
      "status": "active",
      "location": {
        "name": "Charleville",
        "address": "76 Alfred Street, Charleville QLD 4470",
        "city": "Queensland",
        "state": "QLD",
        "postcode": "4470",
        "region": "charleville",
        "coordinates": null
      },
      "contact": {
        "phone": "1300 651 188",
        "email": "charleville@legalaid.qld.gov.au"
      }
    },
    {
      "id": "f5adcd83-4fed-4801-8379-4411ca930ef4",
      "organization_id": "99b2ade4-b48a-4bbe-a025-0daa95544d42",
      "name": "Brisbane Youth Legal Service",
      "description": "Free legal representation and advice for young people aged 10-25. Services include criminal law representation, police interviews, court representation, bail applications, and legal education.",
      "categories": [
        "legal_aid",
        "court_support",
        "criminal_law"
      ],
      "keywords": [
        "legal",
        "court",
        "lawyer",
        "criminal",
        "youth",
        "bail",
        "police"
      ],
      "minimum_age": 10,
      "maximum_age": 25,
      "youth_specific": true,
      "indigenous_specific": true,
      "data_source": "legal_services_expanded",
      "status": "active",
      "location": {
        "name": "Brisbane",
        "address": "ALS House, Level 6, 393 Ann Street, Brisbane QLD 4000",
        "city": "Brisbane",
        "state": "QLD",
        "postcode": "4000",
        "region": "brisbane",
        "coordinates": null
      },
      "contact": {
        "phone": "(07) 3025 3888",
        "email": "brisbane@legalaid.qld.gov.au"
      }
    },
    {
      "id": "78ec2744-8eb6-42ab-bd3d-9e42a0b4e43f",
      "organization_id": "99b2ade4-b48a-4bbe-a025-0daa95544d42",
      "name": "Cairns Youth Legal Service",
      "description": "Free legal representation and advice for young people aged 10-25. Services include criminal law representation, police interviews, court representation, bail applications, and legal education.",
      "categories": [
        "legal_aid",
        "court_support",
        "criminal_law"
      ],
      "keywords": [
        "legal",
        "court",
        "lawyer",
        "criminal",
        "youth",
        "bail",
        "police"
      ],
      "minimum_age": 10,
      "maximum_age": 25,
      "youth_specific": true,
      "indigenous_specific": true,
      "data_source": "legal_services_expanded",
      "status": "active",
      "location": {
        "name": "Cairns",
        "address": "Level 1, 142 Abbott Street, Cairns QLD 4870",
        "city": "Cairns",
        "state": "QLD",
        "postcode": "4870",
        "region": "cairns",
        "coordinates": null
      },
      "contact": {
        "phone": "(07) 4031 7688",
        "email": "cairns@legalaid.qld.gov.au"
      }
    },
    {
      "id": "11cf8721-a914-4e0c-82f7-cc5fc7d56dbc",
      "organization_id": "99b2ade4-b48a-4bbe-a025-0daa95544d42",
      "name": "Townsville Youth Legal Service",
      "description": "Free legal representation and advice for young people aged 10-25. Services include criminal law representation, police interviews, court representation, bail applications, and legal education.",
      "categories": [
        "legal_aid",
        "court_support",
        "criminal_law"
      ],
      "keywords": [
        "legal",
        "court",
        "lawyer",
        "criminal",
        "youth",
        "bail",
        "police"
      ],
      "minimum_age": 10,
      "maximum_age": 25,
      "youth_specific": true,
      "indigenous_specific": true,
      "data_source": "legal_services_expanded",
      "status": "active",
      "location": {
        "name": "Townsville",
        "address": "67 Denham Street, Townsville QLD 4810",
        "city": "Townsville",
        "state": "QLD",
        "postcode": "4810",
        "region": "townsville",
        "coordinates": null
      },
      "contact": {
        "phone": "(07) 4721 4713",
        "email": "townsville@legalaid.qld.gov.au"
      }
    },
    {
      "id": "3ea5ba93-04fb-467a-b47d-d845edd043a9",
      "organization_id": "99b2ade4-b48a-4bbe-a025-0daa95544d42",
      "name": "Mount Isa Youth Legal Service",
      "description": "Free legal representation and advice for young people aged 10-25. Services include criminal law representation, police interviews, court representation, bail applications, and legal education.",
      "categories": [
        "legal_aid",
        "court_support",
        "criminal_law"
      ],
      "keywords": [
        "legal",
        "court",
        "lawyer",
        "criminal",
        "youth",
        "bail",
        "police"
      ],
      "minimum_age": 10,
      "maximum_age": 25,
      "youth_specific": true,
      "indigenous_specific": true,
      "data_source": "legal_services_expanded",
      "status": "active",
      "location": {
        "name": "Mount Isa",
        "address": "19 Simpson Street, Mount Isa QLD 4825",
        "city": "Mount Isa",
        "state": "QLD",
        "postcode": "4825",
        "region": "mount_isa",
        "coordinates": null
      },
      "contact": {
        "phone": "(07) 4743 4388",
        "email": "mount.isa@legalaid.qld.gov.au"
      }
    },
    {
      "id": "96343ca9-80b2-4981-962a-49306fc9c706",
      "organization_id": "99b2ade4-b48a-4bbe-a025-0daa95544d42",
      "name": "Roma Youth Legal Service",
      "description": "Free legal representation and advice for young people aged 10-25. Services include criminal law representation, police interviews, court representation, bail applications, and legal education.",
      "categories": [
        "legal_aid",
        "court_support",
        "criminal_law"
      ],
      "keywords": [
        "legal",
        "court",
        "lawyer",
        "criminal",
        "youth",
        "bail",
        "police"
      ],
      "minimum_age": 10,
      "maximum_age": 25,
      "youth_specific": true,
      "indigenous_specific": true,
      "data_source": "legal_services_expanded",
      "status": "active",
      "location": {
        "name": "Roma",
        "address": "60 Arthur Street, Roma QLD 4455",
        "city": "Queensland",
        "state": "QLD",
        "postcode": "4455",
        "region": "roma",
        "coordinates": null
      },
      "contact": {
        "phone": "(07) 4622 1842",
        "email": "roma@legalaid.qld.gov.au"
      }
    },
    {
      "id": "b3bcfbe9-7145-4c86-bb72-8cb14d3851ea",
      "organization_id": "99b2ade4-b48a-4bbe-a025-0daa95544d42",
      "name": "Rockhampton Youth Legal Service",
      "description": "Free legal representation and advice for young people aged 10-25. Services include criminal law representation, police interviews, court representation, bail applications, and legal education.",
      "categories": [
        "legal_aid",
        "court_support",
        "criminal_law"
      ],
      "keywords": [
        "legal",
        "court",
        "lawyer",
        "criminal",
        "youth",
        "bail",
        "police"
      ],
      "minimum_age": 10,
      "maximum_age": 25,
      "youth_specific": true,
      "indigenous_specific": true,
      "data_source": "legal_services_expanded",
      "status": "active",
      "location": {
        "name": "Rockhampton",
        "address": "139 William Street, Rockhampton QLD 4700",
        "city": "Rockhampton",
        "state": "QLD",
        "postcode": "4700",
        "region": "rockhampton",
        "coordinates": null
      },
      "contact": {
        "phone": "(07) 4927 2339",
        "email": "rockhampton@legalaid.qld.gov.au"
      }
    },
    {
      "id": "bf9866ed-1740-4086-bdfe-dc6f9544342c",
      "organization_id": "b5422780-b88c-42d9-aa51-4eb7e9246188",
      "name": "Brisbane Youth Legal Service",
      "description": "Free legal representation and advice for young people aged 10-25. Services include criminal law representation, police interviews, court representation, bail applications, and legal education.",
      "categories": [
        "legal_aid",
        "court_support",
        "criminal_law"
      ],
      "keywords": [
        "legal",
        "court",
        "lawyer",
        "criminal",
        "youth",
        "bail",
        "police"
      ],
      "minimum_age": 10,
      "maximum_age": 25,
      "youth_specific": true,
      "indigenous_specific": false,
      "data_source": "legal_services_expanded",
      "status": "active",
      "location": {
        "name": "Brisbane",
        "address": "1/43 Peel Street, South Brisbane QLD 4101",
        "city": "Brisbane",
        "state": "QLD",
        "postcode": "4101",
        "region": "brisbane",
        "coordinates": null
      },
      "contact": {
        "phone": "(07) 3356 1002",
        "email": "brisbane@legalaid.qld.gov.au"
      }
    },
    {
      "id": "4aad406b-93ca-4b0d-9198-0fe868e2c719",
      "organization_id": "b5422780-b88c-42d9-aa51-4eb7e9246188",
      "name": "Gold Coast Youth Legal Service",
      "description": "Free legal representation and advice for young people aged 10-25. Services include criminal law representation, police interviews, court representation, bail applications, and legal education.",
      "categories": [
        "legal_aid",
        "court_support",
        "criminal_law"
      ],
      "keywords": [
        "legal",
        "court",
        "lawyer",
        "criminal",
        "youth",
        "bail",
        "police"
      ],
      "minimum_age": 10,
      "maximum_age": 25,
      "youth_specific": true,
      "indigenous_specific": false,
      "data_source": "legal_services_expanded",
      "status": "active",
      "location": {
        "name": "Gold Coast",
        "address": "32 Beryl Street, Southport QLD 4215",
        "city": "Queensland",
        "state": "QLD",
        "postcode": "4215",
        "region": "gold_coast",
        "coordinates": null
      },
      "contact": {
        "phone": "(07) 5591 3892",
        "email": "gold.coast@legalaid.qld.gov.au"
      }
    },
    {
      "id": "3832e02b-c76f-4a26-a161-31dfe0e4930b",
      "organization_id": "01398749-ddf8-4b50-90fe-159bf7e741ad",
      "name": "Caxton Legal Centre Youth Legal Service",
      "description": "Free legal representation and advice for young people aged 10-25. Services include criminal law representation, police interviews, court representation, bail applications, and legal education.",
      "categories": [
        "legal_aid",
        "court_support",
        "criminal_law"
      ],
      "keywords": [
        "legal",
        "court",
        "lawyer",
        "criminal",
        "youth",
        "bail",
        "police"
      ],
      "minimum_age": 10,
      "maximum_age": 25,
      "youth_specific": true,
      "indigenous_specific": false,
      "data_source": "legal_services_expanded",
      "status": "active",
      "location": {
        "name": "Caxton Legal Centre",
        "address": "1 Manning Street, South Brisbane QLD 4101",
        "city": "Brisbane",
        "state": "QLD",
        "postcode": "4101",
        "region": "brisbane",
        "coordinates": null
      },
      "contact": {
        "phone": "(07) 3214 6333",
        "email": "caxton.legal.centre@legalaid.qld.gov.au"
      }
    },
    {
      "id": "b3a8fbc2-7358-44d6-8569-6465ff30c81a",
      "organization_id": "01398749-ddf8-4b50-90fe-159bf7e741ad",
      "name": "Women's Legal Service Youth Legal Service",
      "description": "Free legal representation and advice for young people aged 10-25. Services include criminal law representation, police interviews, court representation, bail applications, and legal education.",
      "categories": [
        "legal_aid",
        "court_support",
        "criminal_law"
      ],
      "keywords": [
        "legal",
        "court",
        "lawyer",
        "criminal",
        "youth",
        "bail",
        "police"
      ],
      "minimum_age": 10,
      "maximum_age": 25,
      "youth_specific": true,
      "indigenous_specific": false,
      "data_source": "legal_services_expanded",
      "status": "active",
      "location": {
        "name": "Women's Legal Service",
        "address": "8 Ponsonby Street, Annerley QLD 4103",
        "city": "Queensland",
        "state": "QLD",
        "postcode": "4103",
        "region": "brisbane",
        "coordinates": null
      },
      "contact": {
        "phone": "(07) 3392 0644",
        "email": "women's.legal.service@legalaid.qld.gov.au"
      }
    },
    {
      "id": "82258de4-5d33-4f40-a2e2-8226c0ecda91",
      "organization_id": "01398749-ddf8-4b50-90fe-159bf7e741ad",
      "name": "Refugee and Immigration Legal Service Youth Legal Service",
      "description": "Free legal representation and advice for young people aged 10-25. Services include criminal law representation, police interviews, court representation, bail applications, and legal education.",
      "categories": [
        "legal_aid",
        "court_support",
        "criminal_law"
      ],
      "keywords": [
        "legal",
        "court",
        "lawyer",
        "criminal",
        "youth",
        "bail",
        "police"
      ],
      "minimum_age": 10,
      "maximum_age": 25,
      "youth_specific": true,
      "indigenous_specific": false,
      "data_source": "legal_services_expanded",
      "status": "active",
      "location": {
        "name": "Refugee and Immigration Legal Service",
        "address": "1st Floor, 43 Peel Street, South Brisbane QLD 4101",
        "city": "Brisbane",
        "state": "QLD",
        "postcode": "4101",
        "region": "brisbane",
        "coordinates": null
      },
      "contact": {
        "phone": "(07) 3846 9300",
        "email": "refugee.and.immigration.legal.service@legalaid.qld.gov.au"
      }
    },
    {
      "id": "8010c49c-658b-442a-9038-013be5eacd90",
      "organization_id": "01398749-ddf8-4b50-90fe-159bf7e741ad",
      "name": "Tenants Union of Queensland Youth Legal Service",
      "description": "Free legal representation and advice for young people aged 10-25. Services include criminal law representation, police interviews, court representation, bail applications, and legal education.",
      "categories": [
        "legal_aid",
        "court_support",
        "criminal_law"
      ],
      "keywords": [
        "legal",
        "court",
        "lawyer",
        "criminal",
        "youth",
        "bail",
        "police"
      ],
      "minimum_age": 10,
      "maximum_age": 25,
      "youth_specific": true,
      "indigenous_specific": false,
      "data_source": "legal_services_expanded",
      "status": "active",
      "location": {
        "name": "Tenants Union of Queensland",
        "address": "2 Peel Street, South Brisbane QLD 4101",
        "city": "Brisbane",
        "state": "QLD",
        "postcode": "4101",
        "region": "brisbane",
        "coordinates": null
      },
      "contact": {
        "phone": "(07) 3832 1015",
        "email": "tenants.union.of.queensland@legalaid.qld.gov.au"
      }
    },
    {
      "id": "c9dbb811-46f9-45d7-bf37-0311f86d0884",
      "organization_id": "01398749-ddf8-4b50-90fe-159bf7e741ad",
      "name": "North Queensland Community Legal Service Youth Legal Service",
      "description": "Free legal representation and advice for young people aged 10-25. Services include criminal law representation, police interviews, court representation, bail applications, and legal education.",
      "categories": [
        "legal_aid",
        "court_support",
        "criminal_law"
      ],
      "keywords": [
        "legal",
        "court",
        "lawyer",
        "criminal",
        "youth",
        "bail",
        "police"
      ],
      "minimum_age": 10,
      "maximum_age": 25,
      "youth_specific": true,
      "indigenous_specific": false,
      "data_source": "legal_services_expanded",
      "status": "active",
      "location": {
        "name": "North Queensland Community Legal Service",
        "address": "2/14 Blackwood Street, Townsville QLD 4810",
        "city": "Townsville",
        "state": "QLD",
        "postcode": "4810",
        "region": "townsville",
        "coordinates": null
      },
      "contact": {
        "phone": "(07) 4721 5511",
        "email": "north.queensland.community.legal.service@legalaid.qld.gov.au"
      }
    },
    {
      "id": "a9857041-5376-4e1c-a343-bda59411482e",
      "organization_id": "01398749-ddf8-4b50-90fe-159bf7e741ad",
      "name": "Mackay Community Legal Service Youth Legal Service",
      "description": "Free legal representation and advice for young people aged 10-25. Services include criminal law representation, police interviews, court representation, bail applications, and legal education.",
      "categories": [
        "legal_aid",
        "court_support",
        "criminal_law"
      ],
      "keywords": [
        "legal",
        "court",
        "lawyer",
        "criminal",
        "youth",
        "bail",
        "police"
      ],
      "minimum_age": 10,
      "maximum_age": 25,
      "youth_specific": true,
      "indigenous_specific": false,
      "data_source": "legal_services_expanded",
      "status": "active",
      "location": {
        "name": "Mackay Community Legal Service",
        "address": "35 Brisbane Street, Mackay QLD 4740",
        "city": "Brisbane",
        "state": "QLD",
        "postcode": "4740",
        "region": "mackay",
        "coordinates": null
      },
      "contact": {
        "phone": "(07) 4944 1214",
        "email": "mackay.community.legal.service@legalaid.qld.gov.au"
      }
    },
    {
      "id": "52196469-c432-4840-8e3d-bf52517e9730",
      "organization_id": "01398749-ddf8-4b50-90fe-159bf7e741ad",
      "name": "Wide Bay Community Legal Service Youth Legal Service",
      "description": "Free legal representation and advice for young people aged 10-25. Services include criminal law representation, police interviews, court representation, bail applications, and legal education.",
      "categories": [
        "legal_aid",
        "court_support",
        "criminal_law"
      ],
      "keywords": [
        "legal",
        "court",
        "lawyer",
        "criminal",
        "youth",
        "bail",
        "police"
      ],
      "minimum_age": 10,
      "maximum_age": 25,
      "youth_specific": true,
      "indigenous_specific": false,
      "data_source": "legal_services_expanded",
      "status": "active",
      "location": {
        "name": "Wide Bay Community Legal Service",
        "address": "78 Woongarra Street, Bundaberg QLD 4670",
        "city": "Bundaberg",
        "state": "QLD",
        "postcode": "4670",
        "region": "bundaberg",
        "coordinates": null
      },
      "contact": {
        "phone": "(07) 4153 1411",
        "email": "wide.bay.community.legal.service@legalaid.qld.gov.au"
      }
    },
    {
      "id": "a51d4c1c-1203-41fc-8bd1-46630ac1ef20",
      "organization_id": "25d5c31c-8865-4a01-a238-d963f1cea7e3",
      "name": "Brisbane CBD",
      "description": "Free mental health support for young people aged 12-25. Services include counseling, mental health assessment, group programs, family support, psychiatric services, and crisis intervention.",
      "categories": [
        "mental_health",
        "counseling",
        "crisis_support"
      ],
      "keywords": [
        "mental",
        "health",
        "counseling",
        "depression",
        "anxiety",
        "therapy",
        "youth"
      ],
      "minimum_age": 12,
      "maximum_age": 25,
      "youth_specific": true,
      "data_source": "mental_health_expanded",
      "status": "active",
      "location": {
        "name": "Brisbane CBD",
        "address": "245 Albert Street, Brisbane QLD 4000",
        "city": "Brisbane",
        "state": "QLD",
        "postcode": "4000",
        "region": "brisbane",
        "coordinates": null
      },
      "contact": {
        "phone": "(07) 3102 9262",
        "email": "info@brisbanecbd.org.au"
      }
    },
    {
      "id": "2f3180fa-4684-4d1d-bb1b-bbcc0a8ac65e",
      "organization_id": "25d5c31c-8865-4a01-a238-d963f1cea7e3",
      "name": "Inala",
      "description": "Free mental health support for young people aged 12-25. Services include counseling, mental health assessment, group programs, family support, psychiatric services, and crisis intervention.",
      "categories": [
        "mental_health",
        "counseling",
        "crisis_support"
      ],
      "keywords": [
        "mental",
        "health",
        "counseling",
        "depression",
        "anxiety",
        "therapy",
        "youth"
      ],
      "minimum_age": 12,
      "maximum_age": 25,
      "youth_specific": true,
      "data_source": "mental_health_expanded",
      "status": "active",
      "location": {
        "name": "Inala",
        "address": "Inala Community Health Centre, 64 Wirraway Parade, Inala QLD 4077",
        "city": "Queensland",
        "state": "QLD",
        "postcode": "4077",
        "region": "brisbane",
        "coordinates": null
      },
      "contact": {
        "phone": "(07) 3372 2466",
        "email": "info@inala.org.au"
      }
    },
    {
      "id": "930e6044-4677-447a-af93-2cdd6efc7712",
      "organization_id": "25d5c31c-8865-4a01-a238-d963f1cea7e3",
      "name": "Logan",
      "description": "Free mental health support for young people aged 12-25. Services include counseling, mental health assessment, group programs, family support, psychiatric services, and crisis intervention.",
      "categories": [
        "mental_health",
        "counseling",
        "crisis_support"
      ],
      "keywords": [
        "mental",
        "health",
        "counseling",
        "depression",
        "anxiety",
        "therapy",
        "youth"
      ],
      "minimum_age": 12,
      "maximum_age": 25,
      "youth_specific": true,
      "data_source": "mental_health_expanded",
      "status": "active",
      "location": {
        "name": "Logan",
        "address": "38 Wembley Road, Logan Central QLD 4114",
        "city": "Queensland",
        "state": "QLD",
        "postcode": "4114",
        "region": "logan",
        "coordinates": null
      },
      "contact": {
        "phone": "(07) 3299 5333",
        "email": "info@logan.org.au"
      }
    },
    {
      "id": "c1185e3d-826f-4943-acfb-fbdbfe278cad",
      "organization_id": "25d5c31c-8865-4a01-a238-d963f1cea7e3",
      "name": "Redcliffe",
      "description": "Free mental health support for young people aged 12-25. Services include counseling, mental health assessment, group programs, family support, psychiatric services, and crisis intervention.",
      "categories": [
        "mental_health",
        "counseling",
        "crisis_support"
      ],
      "keywords": [
        "mental",
        "health",
        "counseling",
        "depression",
        "anxiety",
        "therapy",
        "youth"
      ],
      "minimum_age": 12,
      "maximum_age": 25,
      "youth_specific": true,
      "data_source": "mental_health_expanded",
      "status": "active",
      "location": {
        "name": "Redcliffe",
        "address": "112 Sutton Street, Redcliffe QLD 4020",
        "city": "Queensland",
        "state": "QLD",
        "postcode": "4020",
        "region": "moreton_bay",
        "coordinates": null
      },
      "contact": {
        "phone": "(07) 3897 3000",
        "email": "info@redcliffe.org.au"
      }
    },
    {
      "id": "225e450e-5baf-482b-a8de-191ff65ce431",
      "organization_id": "25d5c31c-8865-4a01-a238-d963f1cea7e3",
      "name": "Ipswich",
      "description": "Free mental health support for young people aged 12-25. Services include counseling, mental health assessment, group programs, family support, psychiatric services, and crisis intervention.",
      "categories": [
        "mental_health",
        "counseling",
        "crisis_support"
      ],
      "keywords": [
        "mental",
        "health",
        "counseling",
        "depression",
        "anxiety",
        "therapy",
        "youth"
      ],
      "minimum_age": 12,
      "maximum_age": 25,
      "youth_specific": true,
      "data_source": "mental_health_expanded",
      "status": "active",
      "location": {
        "name": "Ipswich",
        "address": "117 Brisbane Street, Ipswich QLD 4305",
        "city": "Brisbane",
        "state": "QLD",
        "postcode": "4305",
        "region": "ipswich",
        "coordinates": null
      },
      "contact": {
        "phone": "(07) 3282 8333",
        "email": "info@ipswich.org.au"
      }
    },
    {
      "id": "2a7deec5-d263-4f5d-bb16-10683f31e316",
      "organization_id": "25d5c31c-8865-4a01-a238-d963f1cea7e3",
      "name": "Southport",
      "description": "Free mental health support for young people aged 12-25. Services include counseling, mental health assessment, group programs, family support, psychiatric services, and crisis intervention.",
      "categories": [
        "mental_health",
        "counseling",
        "crisis_support"
      ],
      "keywords": [
        "mental",
        "health",
        "counseling",
        "depression",
        "anxiety",
        "therapy",
        "youth"
      ],
      "minimum_age": 12,
      "maximum_age": 25,
      "youth_specific": true,
      "data_source": "mental_health_expanded",
      "status": "active",
      "location": {
        "name": "Southport",
        "address": "2/46 Scarborough Street, Southport QLD 4215",
        "city": "Queensland",
        "state": "QLD",
        "postcode": "4215",
        "region": "gold_coast",
        "coordinates": null
      },
      "contact": {
        "phone": "(07) 5561 8777",
        "email": "info@southport.org.au"
      }
    },
    {
      "id": "1f6d187c-1707-4c2a-9767-8a7a0f306aad",
      "organization_id": "25d5c31c-8865-4a01-a238-d963f1cea7e3",
      "name": "Robina",
      "description": "Free mental health support for young people aged 12-25. Services include counseling, mental health assessment, group programs, family support, psychiatric services, and crisis intervention.",
      "categories": [
        "mental_health",
        "counseling",
        "crisis_support"
      ],
      "keywords": [
        "mental",
        "health",
        "counseling",
        "depression",
        "anxiety",
        "therapy",
        "youth"
      ],
      "minimum_age": 12,
      "maximum_age": 25,
      "youth_specific": true,
      "data_source": "mental_health_expanded",
      "status": "active",
      "location": {
        "name": "Robina",
        "address": "Shop 1085, Robina Town Centre, Robina QLD 4226",
        "city": "Queensland",
        "state": "QLD",
        "postcode": "4226",
        "region": "gold_coast",
        "coordinates": null
      },
      "contact": {
        "phone": "(07) 5593 5155",
        "email": "info@robina.org.au"
      }
    },
    {
      "id": "88424272-bb5b-4bbe-9770-a680850d794a",
      "organization_id": "25d5c31c-8865-4a01-a238-d963f1cea7e3",
      "name": "Burleigh Heads",
      "description": "Free mental health support for young people aged 12-25. Services include counseling, mental health assessment, group programs, family support, psychiatric services, and crisis intervention.",
      "categories": [
        "mental_health",
        "counseling",
        "crisis_support"
      ],
      "keywords": [
        "mental",
        "health",
        "counseling",
        "depression",
        "anxiety",
        "therapy",
        "youth"
      ],
      "minimum_age": 12,
      "maximum_age": 25,
      "youth_specific": true,
      "data_source": "mental_health_expanded",
      "status": "active",
      "location": {
        "name": "Burleigh Heads",
        "address": "1/1681 Gold Coast Highway, Burleigh Heads QLD 4220",
        "city": "Gold Coast",
        "state": "QLD",
        "postcode": "4220",
        "region": "gold_coast",
        "coordinates": null
      },
      "contact": {
        "phone": "(07) 5535 8588",
        "email": "info@burleighheads.org.au"
      }
    },
    {
      "id": "662cee49-c384-4e88-ad89-450bf699881b",
      "organization_id": "25d5c31c-8865-4a01-a238-d963f1cea7e3",
      "name": "Maroochydore",
      "description": "Free mental health support for young people aged 12-25. Services include counseling, mental health assessment, group programs, family support, psychiatric services, and crisis intervention.",
      "categories": [
        "mental_health",
        "counseling",
        "crisis_support"
      ],
      "keywords": [
        "mental",
        "health",
        "counseling",
        "depression",
        "anxiety",
        "therapy",
        "youth"
      ],
      "minimum_age": 12,
      "maximum_age": 25,
      "youth_specific": true,
      "data_source": "mental_health_expanded",
      "status": "active",
      "location": {
        "name": "Maroochydore",
        "address": "1/31 Aerodrome Road, Maroochydore QLD 4558",
        "city": "Queensland",
        "state": "QLD",
        "postcode": "4558",
        "region": "sunshine_coast",
        "coordinates": null
      },
      "contact": {
        "phone": "(07) 5479 6888",
        "email": "info@maroochydore.org.au"
      }
    },
    {
      "id": "a3aeee3f-383b-47ab-b9c7-d70db0f01bde",
      "organization_id": "25d5c31c-8865-4a01-a238-d963f1cea7e3",
      "name": "Nambour",
      "description": "Free mental health support for young people aged 12-25. Services include counseling, mental health assessment, group programs, family support, psychiatric services, and crisis intervention.",
      "categories": [
        "mental_health",
        "counseling",
        "crisis_support"
      ],
      "keywords": [
        "mental",
        "health",
        "counseling",
        "depression",
        "anxiety",
        "therapy",
        "youth"
      ],
      "minimum_age": 12,
      "maximum_age": 25,
      "youth_specific": true,
      "data_source": "mental_health_expanded",
      "status": "active",
      "location": {
        "name": "Nambour",
        "address": "6 Coronation Avenue, Nambour QLD 4560",
        "city": "Queensland",
        "state": "QLD",
        "postcode": "4560",
        "region": "sunshine_coast",
        "coordinates": null
      },
      "contact": {
        "phone": "(07) 5441 7233",
        "email": "info@nambour.org.au"
      }
    },
    {
      "id": "0c55f63b-f812-4c8e-88fb-aec2afaa4dc9",
      "organization_id": "25d5c31c-8865-4a01-a238-d963f1cea7e3",
      "name": "Caloundra",
      "description": "Free mental health support for young people aged 12-25. Services include counseling, mental health assessment, group programs, family support, psychiatric services, and crisis intervention.",
      "categories": [
        "mental_health",
        "counseling",
        "crisis_support"
      ],
      "keywords": [
        "mental",
        "health",
        "counseling",
        "depression",
        "anxiety",
        "therapy",
        "youth"
      ],
      "minimum_age": 12,
      "maximum_age": 25,
      "youth_specific": true,
      "data_source": "mental_health_expanded",
      "status": "active",
      "location": {
        "name": "Caloundra",
        "address": "46 Bulcock Street, Caloundra QLD 4551",
        "city": "Queensland",
        "state": "QLD",
        "postcode": "4551",
        "region": "sunshine_coast",
        "coordinates": null
      },
      "contact": {
        "phone": "(07) 5491 8133",
        "email": "info@caloundra.org.au"
      }
    },
    {
      "id": "1efe8304-9a9a-4f20-bb82-557799201986",
      "organization_id": "25d5c31c-8865-4a01-a238-d963f1cea7e3",
      "name": "Toowoomba",
      "description": "Free mental health support for young people aged 12-25. Services include counseling, mental health assessment, group programs, family support, psychiatric services, and crisis intervention.",
      "categories": [
        "mental_health",
        "counseling",
        "crisis_support"
      ],
      "keywords": [
        "mental",
        "health",
        "counseling",
        "depression",
        "anxiety",
        "therapy",
        "youth"
      ],
      "minimum_age": 12,
      "maximum_age": 25,
      "youth_specific": true,
      "data_source": "mental_health_expanded",
      "status": "active",
      "location": {
        "name": "Toowoomba",
        "address": "216 Hume Street, Toowoomba QLD 4350",
        "city": "Toowoomba",
        "state": "QLD",
        "postcode": "4350",
        "region": "toowoomba",
        "coordinates": null
      },
      "contact": {
        "phone": "(07) 4634 0900",
        "email": "info@toowoomba.org.au"
      }
    },
    {
      "id": "873dacba-6b44-4f75-b9b2-61067d622fe6",
      "organization_id": "25d5c31c-8865-4a01-a238-d963f1cea7e3",
      "name": "Cairns",
      "description": "Free mental health support for young people aged 12-25. Services include counseling, mental health assessment, group programs, family support, psychiatric services, and crisis intervention.",
      "categories": [
        "mental_health",
        "counseling",
        "crisis_support"
      ],
      "keywords": [
        "mental",
        "health",
        "counseling",
        "depression",
        "anxiety",
        "therapy",
        "youth"
      ],
      "minimum_age": 12,
      "maximum_age": 25,
      "youth_specific": true,
      "data_source": "mental_health_expanded",
      "status": "active",
      "location": {
        "name": "Cairns",
        "address": "1/67 Abbott Street, Cairns QLD 4870",
        "city": "Cairns",
        "state": "QLD",
        "postcode": "4870",
        "region": "cairns",
        "coordinates": null
      },
      "contact": {
        "phone": "(07) 4031 6555",
        "email": "info@cairns.org.au"
      }
    },
    {
      "id": "0c9a6c8c-5169-42da-aeb0-f7fbf03a8f61",
      "organization_id": "25d5c31c-8865-4a01-a238-d963f1cea7e3",
      "name": "Townsville",
      "description": "Free mental health support for young people aged 12-25. Services include counseling, mental health assessment, group programs, family support, psychiatric services, and crisis intervention.",
      "categories": [
        "mental_health",
        "counseling",
        "crisis_support"
      ],
      "keywords": [
        "mental",
        "health",
        "counseling",
        "depression",
        "anxiety",
        "therapy",
        "youth"
      ],
      "minimum_age": 12,
      "maximum_age": 25,
      "youth_specific": true,
      "data_source": "mental_health_expanded",
      "status": "active",
      "location": {
        "name": "Townsville",
        "address": "1/18 Blackwood Street, Townsville QLD 4810",
        "city": "Townsville",
        "state": "QLD",
        "postcode": "4810",
        "region": "townsville",
        "coordinates": null
      },
      "contact": {
        "phone": "(07) 4724 3888",
        "email": "info@townsville.org.au"
      }
    },
    {
      "id": "3d49176d-7f06-4d7a-9d31-2a76aede520a",
      "organization_id": "25d5c31c-8865-4a01-a238-d963f1cea7e3",
      "name": "Mackay",
      "description": "Free mental health support for young people aged 12-25. Services include counseling, mental health assessment, group programs, family support, psychiatric services, and crisis intervention.",
      "categories": [
        "mental_health",
        "counseling",
        "crisis_support"
      ],
      "keywords": [
        "mental",
        "health",
        "counseling",
        "depression",
        "anxiety",
        "therapy",
        "youth"
      ],
      "minimum_age": 12,
      "maximum_age": 25,
      "youth_specific": true,
      "data_source": "mental_health_expanded",
      "status": "active",
      "location": {
        "name": "Mackay",
        "address": "34 Brisbane Street, Mackay QLD 4740",
        "city": "Brisbane",
        "state": "QLD",
        "postcode": "4740",
        "region": "mackay",
        "coordinates": null
      },
      "contact": {
        "phone": "(07) 4951 6155",
        "email": "info@mackay.org.au"
      }
    },
    {
      "id": "e8cf6319-b341-49f4-9261-1189823daaad",
      "organization_id": "25d5c31c-8865-4a01-a238-d963f1cea7e3",
      "name": "Rockhampton",
      "description": "Free mental health support for young people aged 12-25. Services include counseling, mental health assessment, group programs, family support, psychiatric services, and crisis intervention.",
      "categories": [
        "mental_health",
        "counseling",
        "crisis_support"
      ],
      "keywords": [
        "mental",
        "health",
        "counseling",
        "depression",
        "anxiety",
        "therapy",
        "youth"
      ],
      "minimum_age": 12,
      "maximum_age": 25,
      "youth_specific": true,
      "data_source": "mental_health_expanded",
      "status": "active",
      "location": {
        "name": "Rockhampton",
        "address": "142 William Street, Rockhampton QLD 4700",
        "city": "Rockhampton",
        "state": "QLD",
        "postcode": "4700",
        "region": "rockhampton",
        "coordinates": null
      },
      "contact": {
        "phone": "(07) 4927 7888",
        "email": "info@rockhampton.org.au"
      }
    },
    {
      "id": "251c9387-60c3-4e24-b9f6-008c5c3692d9",
      "organization_id": "25d5c31c-8865-4a01-a238-d963f1cea7e3",
      "name": "Bundaberg",
      "description": "Free mental health support for young people aged 12-25. Services include counseling, mental health assessment, group programs, family support, psychiatric services, and crisis intervention.",
      "categories": [
        "mental_health",
        "counseling",
        "crisis_support"
      ],
      "keywords": [
        "mental",
        "health",
        "counseling",
        "depression",
        "anxiety",
        "therapy",
        "youth"
      ],
      "minimum_age": 12,
      "maximum_age": 25,
      "youth_specific": true,
      "data_source": "mental_health_expanded",
      "status": "active",
      "location": {
        "name": "Bundaberg",
        "address": "1/73 Bourbong Street, Bundaberg QLD 4670",
        "city": "Bundaberg",
        "state": "QLD",
        "postcode": "4670",
        "region": "bundaberg",
        "coordinates": null
      },
      "contact": {
        "phone": "(07) 4153 1966",
        "email": "info@bundaberg.org.au"
      }
    },
    {
      "id": "7993c4e1-431d-4cb7-9b59-c94f0d31670f",
      "organization_id": "25d5c31c-8865-4a01-a238-d963f1cea7e3",
      "name": "Fraser Coast",
      "description": "Free mental health support for young people aged 12-25. Services include counseling, mental health assessment, group programs, family support, psychiatric services, and crisis intervention.",
      "categories": [
        "mental_health",
        "counseling",
        "crisis_support"
      ],
      "keywords": [
        "mental",
        "health",
        "counseling",
        "depression",
        "anxiety",
        "therapy",
        "youth"
      ],
      "minimum_age": 12,
      "maximum_age": 25,
      "youth_specific": true,
      "data_source": "mental_health_expanded",
      "status": "active",
      "location": {
        "name": "Fraser Coast",
        "address": "1/56 Boat Harbour Drive, Hervey Bay QLD 4655",
        "city": "Hervey Bay",
        "state": "QLD",
        "postcode": "4655",
        "region": "fraser_coast",
        "coordinates": null
      },
      "contact": {
        "phone": "(07) 4124 7555",
        "email": "info@frasercoast.org.au"
      }
    },
    {
      "id": "125415ca-c57e-4cdf-b683-58be82c0516d",
      "organization_id": "25d5c31c-8865-4a01-a238-d963f1cea7e3",
      "name": "Gladstone",
      "description": "Free mental health support for young people aged 12-25. Services include counseling, mental health assessment, group programs, family support, psychiatric services, and crisis intervention.",
      "categories": [
        "mental_health",
        "counseling",
        "crisis_support"
      ],
      "keywords": [
        "mental",
        "health",
        "counseling",
        "depression",
        "anxiety",
        "therapy",
        "youth"
      ],
      "minimum_age": 12,
      "maximum_age": 25,
      "youth_specific": true,
      "data_source": "mental_health_expanded",
      "status": "active",
      "location": {
        "name": "Gladstone",
        "address": "2/142 Goondoon Street, Gladstone QLD 4680",
        "city": "Gladstone",
        "state": "QLD",
        "postcode": "4680",
        "region": "gladstone",
        "coordinates": null
      },
      "contact": {
        "phone": "(07) 4972 6789",
        "email": "info@gladstone.org.au"
      }
    },
    {
      "id": "da9a7b8e-cdab-4011-a482-ae8bb2a48442",
      "organization_id": "25d5c31c-8865-4a01-a238-d963f1cea7e3",
      "name": "Mount Isa",
      "description": "Free mental health support for young people aged 12-25. Services include counseling, mental health assessment, group programs, family support, psychiatric services, and crisis intervention.",
      "categories": [
        "mental_health",
        "counseling",
        "crisis_support"
      ],
      "keywords": [
        "mental",
        "health",
        "counseling",
        "depression",
        "anxiety",
        "therapy",
        "youth"
      ],
      "minimum_age": 12,
      "maximum_age": 25,
      "youth_specific": true,
      "data_source": "mental_health_expanded",
      "status": "active",
      "location": {
        "name": "Mount Isa",
        "address": "8 Simpson Street, Mount Isa QLD 4825",
        "city": "Mount Isa",
        "state": "QLD",
        "postcode": "4825",
        "region": "mount_isa",
        "coordinates": null
      },
      "contact": {
        "phone": "(07) 4749 1934",
        "email": "info@mountisa.org.au"
      }
    },
    {
      "id": "16bbe9b7-e19b-4623-a0eb-b27b8d6bc2e8",
      "organization_id": "2ec4b2c5-ea8e-4550-9c59-c20fb60c2236",
      "name": "Brisbane Youth Mental Health Unit",
      "description": "Free mental health support for young people aged 12-25. Services include counseling, mental health assessment, group programs, family support, psychiatric services, and crisis intervention.",
      "categories": [
        "mental_health",
        "counseling",
        "crisis_support"
      ],
      "keywords": [
        "mental",
        "health",
        "counseling",
        "depression",
        "anxiety",
        "therapy",
        "youth"
      ],
      "minimum_age": 12,
      "maximum_age": 25,
      "youth_specific": true,
      "data_source": "mental_health_expanded",
      "status": "active",
      "location": {
        "name": "Brisbane Youth Mental Health Unit",
        "address": "Royal Brisbane Hospital, Butterfield Street, Herston QLD 4029",
        "city": "Brisbane",
        "state": "QLD",
        "postcode": "4029",
        "region": "brisbane",
        "coordinates": null
      },
      "contact": {
        "phone": "(07) 3646 8111",
        "email": "info@brisbaneyouthmentalhealthunit.org.au"
      }
    },
    {
      "id": "fc232ee3-6593-4d11-a853-cb9feeea3081",
      "organization_id": "2ec4b2c5-ea8e-4550-9c59-c20fb60c2236",
      "name": "Gold Coast Youth Mental Health",
      "description": "Free mental health support for young people aged 12-25. Services include counseling, mental health assessment, group programs, family support, psychiatric services, and crisis intervention.",
      "categories": [
        "mental_health",
        "counseling",
        "crisis_support"
      ],
      "keywords": [
        "mental",
        "health",
        "counseling",
        "depression",
        "anxiety",
        "therapy",
        "youth"
      ],
      "minimum_age": 12,
      "maximum_age": 25,
      "youth_specific": true,
      "data_source": "mental_health_expanded",
      "status": "active",
      "location": {
        "name": "Gold Coast Youth Mental Health",
        "address": "Gold Coast University Hospital, 1 Hospital Boulevard, Southport QLD 4215",
        "city": "Gold Coast",
        "state": "QLD",
        "postcode": "4215",
        "region": "gold_coast",
        "coordinates": null
      },
      "contact": {
        "phone": "(07) 5687 9000",
        "email": "info@goldcoastyouthmentalhealth.org.au"
      }
    },
    {
      "id": "05ee89ec-4f97-4110-a6f4-858ff80afcff",
      "organization_id": "2ec4b2c5-ea8e-4550-9c59-c20fb60c2236",
      "name": "Sunshine Coast Youth Mental Health",
      "description": "Free mental health support for young people aged 12-25. Services include counseling, mental health assessment, group programs, family support, psychiatric services, and crisis intervention.",
      "categories": [
        "mental_health",
        "counseling",
        "crisis_support"
      ],
      "keywords": [
        "mental",
        "health",
        "counseling",
        "depression",
        "anxiety",
        "therapy",
        "youth"
      ],
      "minimum_age": 12,
      "maximum_age": 25,
      "youth_specific": true,
      "data_source": "mental_health_expanded",
      "status": "active",
      "location": {
        "name": "Sunshine Coast Youth Mental Health",
        "address": "Sunshine Coast University Hospital, 6 Doherty Street, Birtinya QLD 4575",
        "city": "Sunshine Coast",
        "state": "QLD",
        "postcode": "4575",
        "region": "sunshine_coast",
        "coordinates": null
      },
      "contact": {
        "phone": "(07) 5202 0000",
        "email": "info@sunshinecoastyouthmentalhealth.org.au"
      }
    },
    {
      "id": "0443a868-bc06-44ac-aadf-344320590438",
      "organization_id": "2ec4b2c5-ea8e-4550-9c59-c20fb60c2236",
      "name": "Townsville Youth Mental Health",
      "description": "Free mental health support for young people aged 12-25. Services include counseling, mental health assessment, group programs, family support, psychiatric services, and crisis intervention.",
      "categories": [
        "mental_health",
        "counseling",
        "crisis_support"
      ],
      "keywords": [
        "mental",
        "health",
        "counseling",
        "depression",
        "anxiety",
        "therapy",
        "youth"
      ],
      "minimum_age": 12,
      "maximum_age": 25,
      "youth_specific": true,
      "data_source": "mental_health_expanded",
      "status": "active",
      "location": {
        "name": "Townsville Youth Mental Health",
        "address": "Townsville University Hospital, 100 Angus Smith Drive, Douglas QLD 4814",
        "city": "Townsville",
        "state": "QLD",
        "postcode": "4814",
        "region": "townsville",
        "coordinates": null
      },
      "contact": {
        "phone": "(07) 4433 1111",
        "email": "info@townsvilleyouthmentalhealth.org.au"
      }
    },
    {
      "id": "98bcfc33-27fc-4864-b76a-88db16d697e7",
      "organization_id": "2ec4b2c5-ea8e-4550-9c59-c20fb60c2236",
      "name": "Cairns Youth Mental Health",
      "description": "Free mental health support for young people aged 12-25. Services include counseling, mental health assessment, group programs, family support, psychiatric services, and crisis intervention.",
      "categories": [
        "mental_health",
        "counseling",
        "crisis_support"
      ],
      "keywords": [
        "mental",
        "health",
        "counseling",
        "depression",
        "anxiety",
        "therapy",
        "youth"
      ],
      "minimum_age": 12,
      "maximum_age": 25,
      "youth_specific": true,
      "data_source": "mental_health_expanded",
      "status": "active",
      "location": {
        "name": "Cairns Youth Mental Health",
        "address": "Cairns Hospital, 165 The Esplanade, Cairns QLD 4870",
        "city": "Cairns",
        "state": "QLD",
        "postcode": "4870",
        "region": "cairns",
        "coordinates": null
      },
      "contact": {
        "phone": "(07) 4226 0000",
        "email": "info@cairnsyouthmentalhealth.org.au"
      }
    }
  ]
}