{
  "timestamp": "2025-07-08T01:38:13.273Z",
  "stats": {
    "found": 135,
    "processed": 135,
    "errors": 0
  },
  "services": [
    {
      "id": "99eec95a-4b84-40c1-80f5-f371d4195a2e",
      "organization_id": "5f890b79-afa1-4ab7-b30a-5e7e4be5c091",
      "name": "PCYC Brisbane City",
      "description": "Youth development programs including sports, recreation, education support, leadership development, and crime prevention. Programs for ages 5-25 including after-school care, holiday programs, fitness classes, and mentoring.",
      "categories": [
        "youth_development",
        "sports_recreation",
        "crime_prevention",
        "education_support"
      ],
      "keywords": [
        "pcyc",
        "sports",
        "recreation",
        "youth",
        "police",
        "community",
        "leadership"
      ],
      "minimum_age": 5,
      "maximum_age": 25,
      "youth_specific": true,
      "data_source": "pcyc_mega_expansion",
      "status": "active",
      "location": {
        "name": "PCYC Brisbane City",
        "address": "100 Turbot Street, Brisbane QLD 4000",
        "city": "Brisbane",
        "state": "QLD",
        "postcode": "4000",
        "region": "brisbane",
        "coordinates": null
      },
      "contact": {
        "phone": "(07) 3236 2444",
        "email": "brisbanecity@pcyc.org.au"
      }
    },
    {
      "id": "eb08ff3a-38e4-4e67-9244-a4a1f6362ccf",
      "organization_id": "5f890b79-afa1-4ab7-b30a-5e7e4be5c091",
      "name": "PCYC Acacia Ridge",
      "description": "Youth development programs including sports, recreation, education support, leadership development, and crime prevention. Programs for ages 5-25 including after-school care, holiday programs, fitness classes, and mentoring.",
      "categories": [
        "youth_development",
        "sports_recreation",
        "crime_prevention",
        "education_support"
      ],
      "keywords": [
        "pcyc",
        "sports",
        "recreation",
        "youth",
        "police",
        "community",
        "leadership"
      ],
      "minimum_age": 5,
      "maximum_age": 25,
      "youth_specific": true,
      "data_source": "pcyc_mega_expansion",
      "status": "active",
      "location": {
        "name": "PCYC Acacia Ridge",
        "address": "1722 Beaudesert Road, Acacia Ridge QLD 4110",
        "city": "Queensland",
        "state": "QLD",
        "postcode": "4110",
        "region": "brisbane",
        "coordinates": null
      },
      "contact": {
        "phone": "(07) 3277 8488",
        "email": "acaciaridge@pcyc.org.au"
      }
    },
    {
      "id": "0087b18f-741f-4986-832f-988779dc3cfb",
      "organization_id": "5f890b79-afa1-4ab7-b30a-5e7e4be5c091",
      "name": "PCYC Algester",
      "description": "Youth development programs including sports, recreation, education support, leadership development, and crime prevention. Programs for ages 5-25 including after-school care, holiday programs, fitness classes, and mentoring.",
      "categories": [
        "youth_development",
        "sports_recreation",
        "crime_prevention",
        "education_support"
      ],
      "keywords": [
        "pcyc",
        "sports",
        "recreation",
        "youth",
        "police",
        "community",
        "leadership"
      ],
      "minimum_age": 5,
      "maximum_age": 25,
      "youth_specific": true,
      "data_source": "pcyc_mega_expansion",
      "status": "active",
      "location": {
        "name": "PCYC Algester",
        "address": "150 Algester Road, Algester QLD 4115",
        "city": "Queensland",
        "state": "QLD",
        "postcode": "4115",
        "region": "brisbane",
        "coordinates": null
      },
      "contact": {
        "phone": "(07) 3274 7900",
        "email": "algester@pcyc.org.au"
      }
    },
    {
      "id": "722739eb-629d-4d32-b70b-af96e9e36c23",
      "organization_id": "5f890b79-afa1-4ab7-b30a-5e7e4be5c091",
      "name": "PCYC Annerley",
      "description": "Youth development programs including sports, recreation, education support, leadership development, and crime prevention. Programs for ages 5-25 including after-school care, holiday programs, fitness classes, and mentoring.",
      "categories": [
        "youth_development",
        "sports_recreation",
        "crime_prevention",
        "education_support"
      ],
      "keywords": [
        "pcyc",
        "sports",
        "recreation",
        "youth",
        "police",
        "community",
        "leadership"
      ],
      "minimum_age": 5,
      "maximum_age": 25,
      "youth_specific": true,
      "data_source": "pcyc_mega_expansion",
      "status": "active",
      "location": {
        "name": "PCYC Annerley",
        "address": "52 Ipswich Road, Annerley QLD 4103",
        "city": "Ipswich",
        "state": "QLD",
        "postcode": "4103",
        "region": "brisbane",
        "coordinates": null
      },
      "contact": {
        "phone": "(07) 3391 6420",
        "email": "annerley@pcyc.org.au"
      }
    },
    {
      "id": "e80fb6a0-78fd-4bd0-b36e-8ec65bc7b97a",
      "organization_id": "5f890b79-afa1-4ab7-b30a-5e7e4be5c091",
      "name": "PCYC Aspley",
      "description": "Youth development programs including sports, recreation, education support, leadership development, and crime prevention. Programs for ages 5-25 including after-school care, holiday programs, fitness classes, and mentoring.",
      "categories": [
        "youth_development",
        "sports_recreation",
        "crime_prevention",
        "education_support"
      ],
      "keywords": [
        "pcyc",
        "sports",
        "recreation",
        "youth",
        "police",
        "community",
        "leadership"
      ],
      "minimum_age": 5,
      "maximum_age": 25,
      "youth_specific": true,
      "data_source": "pcyc_mega_expansion",
      "status": "active",
      "location": {
        "name": "PCYC Aspley",
        "address": "59 Albany Creek Road, Aspley QLD 4034",
        "city": "Queensland",
        "state": "QLD",
        "postcode": "4034",
        "region": "brisbane",
        "coordinates": null
      },
      "contact": {
        "phone": "(07) 3263 6308",
        "email": "aspley@pcyc.org.au"
      }
    },
    {
      "id": "f0a14272-d194-43cc-bf35-0c34f828d584",
      "organization_id": "5f890b79-afa1-4ab7-b30a-5e7e4be5c091",
      "name": "PCYC Beenleigh",
      "description": "Youth development programs including sports, recreation, education support, leadership development, and crime prevention. Programs for ages 5-25 including after-school care, holiday programs, fitness classes, and mentoring.",
      "categories": [
        "youth_development",
        "sports_recreation",
        "crime_prevention",
        "education_support"
      ],
      "keywords": [
        "pcyc",
        "sports",
        "recreation",
        "youth",
        "police",
        "community",
        "leadership"
      ],
      "minimum_age": 5,
      "maximum_age": 25,
      "youth_specific": true,
      "data_source": "pcyc_mega_expansion",
      "status": "active",
      "location": {
        "name": "PCYC Beenleigh",
        "address": "114 City Road, Beenleigh QLD 4207",
        "city": "Queensland",
        "state": "QLD",
        "postcode": "4207",
        "region": "logan",
        "coordinates": null
      },
      "contact": {
        "phone": "(07) 3287 1411",
        "email": "beenleigh@pcyc.org.au"
      }
    },
    {
      "id": "568ec3eb-f16e-4692-b2c9-340a5621549f",
      "organization_id": "5f890b79-afa1-4ab7-b30a-5e7e4be5c091",
      "name": "PCYC Bracken Ridge",
      "description": "Youth development programs including sports, recreation, education support, leadership development, and crime prevention. Programs for ages 5-25 including after-school care, holiday programs, fitness classes, and mentoring.",
      "categories": [
        "youth_development",
        "sports_recreation",
        "crime_prevention",
        "education_support"
      ],
      "keywords": [
        "pcyc",
        "sports",
        "recreation",
        "youth",
        "police",
        "community",
        "leadership"
      ],
      "minimum_age": 5,
      "maximum_age": 25,
      "youth_specific": true,
      "data_source": "pcyc_mega_expansion",
      "status": "active",
      "location": {
        "name": "PCYC Bracken Ridge",
        "address": "61 Bracken Street, Bracken Ridge QLD 4017",
        "city": "Queensland",
        "state": "QLD",
        "postcode": "4017",
        "region": "brisbane",
        "coordinates": null
      },
      "contact": {
        "phone": "(07) 3261 4042",
        "email": "brackenridge@pcyc.org.au"
      }
    },
    {
      "id": "87eff2fa-3a1f-4f52-91eb-17fad245b153",
      "organization_id": "5f890b79-afa1-4ab7-b30a-5e7e4be5c091",
      "name": "PCYC Browns Plains",
      "description": "Youth development programs including sports, recreation, education support, leadership development, and crime prevention. Programs for ages 5-25 including after-school care, holiday programs, fitness classes, and mentoring.",
      "categories": [
        "youth_development",
        "sports_recreation",
        "crime_prevention",
        "education_support"
      ],
      "keywords": [
        "pcyc",
        "sports",
        "recreation",
        "youth",
        "police",
        "community",
        "leadership"
      ],
      "minimum_age": 5,
      "maximum_age": 25,
      "youth_specific": true,
      "data_source": "pcyc_mega_expansion",
      "status": "active",
      "location": {
        "name": "PCYC Browns Plains",
        "address": "1 Thomas Street, Browns Plains QLD 4118",
        "city": "Queensland",
        "state": "QLD",
        "postcode": "4118",
        "region": "logan",
        "coordinates": null
      },
      "contact": {
        "phone": "(07) 3800 2100",
        "email": "brownsplains@pcyc.org.au"
      }
    },
    {
      "id": "082240c0-8532-4f0f-acb7-3cc79fc39ce9",
      "organization_id": "5f890b79-afa1-4ab7-b30a-5e7e4be5c091",
      "name": "PCYC Capalaba",
      "description": "Youth development programs including sports, recreation, education support, leadership development, and crime prevention. Programs for ages 5-25 including after-school care, holiday programs, fitness classes, and mentoring.",
      "categories": [
        "youth_development",
        "sports_recreation",
        "crime_prevention",
        "education_support"
      ],
      "keywords": [
        "pcyc",
        "sports",
        "recreation",
        "youth",
        "police",
        "community",
        "leadership"
      ],
      "minimum_age": 5,
      "maximum_age": 25,
      "youth_specific": true,
      "data_source": "pcyc_mega_expansion",
      "status": "active",
      "location": {
        "name": "PCYC Capalaba",
        "address": "18 Moreton Bay Road, Capalaba QLD 4157",
        "city": "Moreton Bay",
        "state": "QLD",
        "postcode": "4157",
        "region": "redlands",
        "coordinates": null
      },
      "contact": {
        "phone": "(07) 3245 1881",
        "email": "capalaba@pcyc.org.au"
      }
    },
    {
      "id": "49164f34-8e75-4687-b1d8-0893d7f5cd97",
      "organization_id": "5f890b79-afa1-4ab7-b30a-5e7e4be5c091",
      "name": "PCYC Carindale",
      "description": "Youth development programs including sports, recreation, education support, leadership development, and crime prevention. Programs for ages 5-25 including after-school care, holiday programs, fitness classes, and mentoring.",
      "categories": [
        "youth_development",
        "sports_recreation",
        "crime_prevention",
        "education_support"
      ],
      "keywords": [
        "pcyc",
        "sports",
        "recreation",
        "youth",
        "police",
        "community",
        "leadership"
      ],
      "minimum_age": 5,
      "maximum_age": 25,
      "youth_specific": true,
      "data_source": "pcyc_mega_expansion",
      "status": "active",
      "location": {
        "name": "PCYC Carindale",
        "address": "1931 Creek Road, Carindale QLD 4152",
        "city": "Queensland",
        "state": "QLD",
        "postcode": "4152",
        "region": "brisbane",
        "coordinates": null
      },
      "contact": {
        "phone": "(07) 3398 5533",
        "email": "carindale@pcyc.org.au"
      }
    },
    {
      "id": "6525c93b-7065-496b-bb2c-5a47aa9293a9",
      "organization_id": "5f890b79-afa1-4ab7-b30a-5e7e4be5c091",
      "name": "PCYC Chermside",
      "description": "Youth development programs including sports, recreation, education support, leadership development, and crime prevention. Programs for ages 5-25 including after-school care, holiday programs, fitness classes, and mentoring.",
      "categories": [
        "youth_development",
        "sports_recreation",
        "crime_prevention",
        "education_support"
      ],
      "keywords": [
        "pcyc",
        "sports",
        "recreation",
        "youth",
        "police",
        "community",
        "leadership"
      ],
      "minimum_age": 5,
      "maximum_age": 25,
      "youth_specific": true,
      "data_source": "pcyc_mega_expansion",
      "status": "active",
      "location": {
        "name": "PCYC Chermside",
        "address": "375 Hamilton Road, Chermside QLD 4032",
        "city": "Queensland",
        "state": "QLD",
        "postcode": "4032",
        "region": "brisbane",
        "coordinates": null
      },
      "contact": {
        "phone": "(07) 3350 9855",
        "email": "chermside@pcyc.org.au"
      }
    },
    {
      "id": "64dd1e07-f2b6-42fa-ae27-5502aaf36256",
      "organization_id": "5f890b79-afa1-4ab7-b30a-5e7e4be5c091",
      "name": "PCYC Cleveland",
      "description": "Youth development programs including sports, recreation, education support, leadership development, and crime prevention. Programs for ages 5-25 including after-school care, holiday programs, fitness classes, and mentoring.",
      "categories": [
        "youth_development",
        "sports_recreation",
        "crime_prevention",
        "education_support"
      ],
      "keywords": [
        "pcyc",
        "sports",
        "recreation",
        "youth",
        "police",
        "community",
        "leadership"
      ],
      "minimum_age": 5,
      "maximum_age": 25,
      "youth_specific": true,
      "data_source": "pcyc_mega_expansion",
      "status": "active",
      "location": {
        "name": "PCYC Cleveland",
        "address": "237 Bloomfield Street, Cleveland QLD 4163",
        "city": "Queensland",
        "state": "QLD",
        "postcode": "4163",
        "region": "redlands",
        "coordinates": null
      },
      "contact": {
        "phone": "(07) 3286 1986",
        "email": "cleveland@pcyc.org.au"
      }
    },
    {
      "id": "153b27ef-706e-494b-94ee-f563f0072e0f",
      "organization_id": "5f890b79-afa1-4ab7-b30a-5e7e4be5c091",
      "name": "PCYC Darra",
      "description": "Youth development programs including sports, recreation, education support, leadership development, and crime prevention. Programs for ages 5-25 including after-school care, holiday programs, fitness classes, and mentoring.",
      "categories": [
        "youth_development",
        "sports_recreation",
        "crime_prevention",
        "education_support"
      ],
      "keywords": [
        "pcyc",
        "sports",
        "recreation",
        "youth",
        "police",
        "community",
        "leadership"
      ],
      "minimum_age": 5,
      "maximum_age": 25,
      "youth_specific": true,
      "data_source": "pcyc_mega_expansion",
      "status": "active",
      "location": {
        "name": "PCYC Darra",
        "address": "2 Dryden Street, Darra QLD 4076",
        "city": "Queensland",
        "state": "QLD",
        "postcode": "4076",
        "region": "brisbane",
        "coordinates": null
      },
      "contact": {
        "phone": "(07) 3375 1714",
        "email": "darra@pcyc.org.au"
      }
    },
    {
      "id": "6185048a-6a74-4d86-9931-e7482b4627e1",
      "organization_id": "5f890b79-afa1-4ab7-b30a-5e7e4be5c091",
      "name": "PCYC Everton Park",
      "description": "Youth development programs including sports, recreation, education support, leadership development, and crime prevention. Programs for ages 5-25 including after-school care, holiday programs, fitness classes, and mentoring.",
      "categories": [
        "youth_development",
        "sports_recreation",
        "crime_prevention",
        "education_support"
      ],
      "keywords": [
        "pcyc",
        "sports",
        "recreation",
        "youth",
        "police",
        "community",
        "leadership"
      ],
      "minimum_age": 5,
      "maximum_age": 25,
      "youth_specific": true,
      "data_source": "pcyc_mega_expansion",
      "status": "active",
      "location": {
        "name": "PCYC Everton Park",
        "address": "601 South Pine Road, Everton Park QLD 4053",
        "city": "Queensland",
        "state": "QLD",
        "postcode": "4053",
        "region": "brisbane",
        "coordinates": null
      },
      "contact": {
        "phone": "(07) 3353 1367",
        "email": "evertonpark@pcyc.org.au"
      }
    },
    {
      "id": "0ee4c14b-7839-4a0d-b0a8-3e12adcdcfdd",
      "organization_id": "5f890b79-afa1-4ab7-b30a-5e7e4be5c091",
      "name": "PCYC Forest Lake",
      "description": "Youth development programs including sports, recreation, education support, leadership development, and crime prevention. Programs for ages 5-25 including after-school care, holiday programs, fitness classes, and mentoring.",
      "categories": [
        "youth_development",
        "sports_recreation",
        "crime_prevention",
        "education_support"
      ],
      "keywords": [
        "pcyc",
        "sports",
        "recreation",
        "youth",
        "police",
        "community",
        "leadership"
      ],
      "minimum_age": 5,
      "maximum_age": 25,
      "youth_specific": true,
      "data_source": "pcyc_mega_expansion",
      "status": "active",
      "location": {
        "name": "PCYC Forest Lake",
        "address": "1 Woogaroo Street, Forest Lake QLD 4078",
        "city": "Queensland",
        "state": "QLD",
        "postcode": "4078",
        "region": "brisbane",
        "coordinates": null
      },
      "contact": {
        "phone": "(07) 3372 5977",
        "email": "forestlake@pcyc.org.au"
      }
    },
    {
      "id": "cb1c6aa7-3851-4e74-b848-c46bc55aab09",
      "organization_id": "5f890b79-afa1-4ab7-b30a-5e7e4be5c091",
      "name": "PCYC Holland Park",
      "description": "Youth development programs including sports, recreation, education support, leadership development, and crime prevention. Programs for ages 5-25 including after-school care, holiday programs, fitness classes, and mentoring.",
      "categories": [
        "youth_development",
        "sports_recreation",
        "crime_prevention",
        "education_support"
      ],
      "keywords": [
        "pcyc",
        "sports",
        "recreation",
        "youth",
        "police",
        "community",
        "leadership"
      ],
      "minimum_age": 5,
      "maximum_age": 25,
      "youth_specific": true,
      "data_source": "pcyc_mega_expansion",
      "status": "active",
      "location": {
        "name": "PCYC Holland Park",
        "address": "1074 Logan Road, Holland Park QLD 4121",
        "city": "Logan",
        "state": "QLD",
        "postcode": "4121",
        "region": "brisbane",
        "coordinates": null
      },
      "contact": {
        "phone": "(07) 3397 9944",
        "email": "hollandpark@pcyc.org.au"
      }
    },
    {
      "id": "bbb5685b-c79d-4a78-a079-9985db410ac1",
      "organization_id": "5f890b79-afa1-4ab7-b30a-5e7e4be5c091",
      "name": "PCYC Inala",
      "description": "Youth development programs including sports, recreation, education support, leadership development, and crime prevention. Programs for ages 5-25 including after-school care, holiday programs, fitness classes, and mentoring.",
      "categories": [
        "youth_development",
        "sports_recreation",
        "crime_prevention",
        "education_support"
      ],
      "keywords": [
        "pcyc",
        "sports",
        "recreation",
        "youth",
        "police",
        "community",
        "leadership"
      ],
      "minimum_age": 5,
      "maximum_age": 25,
      "youth_specific": true,
      "data_source": "pcyc_mega_expansion",
      "status": "active",
      "location": {
        "name": "PCYC Inala",
        "address": "56 Corsair Avenue, Inala QLD 4077",
        "city": "Queensland",
        "state": "QLD",
        "postcode": "4077",
        "region": "brisbane",
        "coordinates": null
      },
      "contact": {
        "phone": "(07) 3372 1318",
        "email": "inala@pcyc.org.au"
      }
    },
    {
      "id": "b07d5d1a-90cb-4b5e-a187-76f60105d781",
      "organization_id": "5f890b79-afa1-4ab7-b30a-5e7e4be5c091",
      "name": "PCYC Ipswich",
      "description": "Youth development programs including sports, recreation, education support, leadership development, and crime prevention. Programs for ages 5-25 including after-school care, holiday programs, fitness classes, and mentoring.",
      "categories": [
        "youth_development",
        "sports_recreation",
        "crime_prevention",
        "education_support"
      ],
      "keywords": [
        "pcyc",
        "sports",
        "recreation",
        "youth",
        "police",
        "community",
        "leadership"
      ],
      "minimum_age": 5,
      "maximum_age": 25,
      "youth_specific": true,
      "data_source": "pcyc_mega_expansion",
      "status": "active",
      "location": {
        "name": "PCYC Ipswich",
        "address": "8 Warwick Road, Ipswich QLD 4305",
        "city": "Ipswich",
        "state": "QLD",
        "postcode": "4305",
        "region": "ipswich",
        "coordinates": null
      },
      "contact": {
        "phone": "(07) 3281 4611",
        "email": "ipswich@pcyc.org.au"
      }
    },
    {
      "id": "d6e1a1c0-cb8a-4367-b37b-e1a4d73d4d36",
      "organization_id": "5f890b79-afa1-4ab7-b30a-5e7e4be5c091",
      "name": "PCYC Jindalee",
      "description": "Youth development programs including sports, recreation, education support, leadership development, and crime prevention. Programs for ages 5-25 including after-school care, holiday programs, fitness classes, and mentoring.",
      "categories": [
        "youth_development",
        "sports_recreation",
        "crime_prevention",
        "education_support"
      ],
      "keywords": [
        "pcyc",
        "sports",
        "recreation",
        "youth",
        "police",
        "community",
        "leadership"
      ],
      "minimum_age": 5,
      "maximum_age": 25,
      "youth_specific": true,
      "data_source": "pcyc_mega_expansion",
      "status": "active",
      "location": {
        "name": "PCYC Jindalee",
        "address": "11 Yallambee Road, Jindalee QLD 4074",
        "city": "Queensland",
        "state": "QLD",
        "postcode": "4074",
        "region": "brisbane",
        "coordinates": null
      },
      "contact": {
        "phone": "(07) 3376 6477",
        "email": "jindalee@pcyc.org.au"
      }
    },
    {
      "id": "d62739fe-1017-4df9-a28e-6872f2e38f9b",
      "organization_id": "5f890b79-afa1-4ab7-b30a-5e7e4be5c091",
      "name": "PCYC Kallangur",
      "description": "Youth development programs including sports, recreation, education support, leadership development, and crime prevention. Programs for ages 5-25 including after-school care, holiday programs, fitness classes, and mentoring.",
      "categories": [
        "youth_development",
        "sports_recreation",
        "crime_prevention",
        "education_support"
      ],
      "keywords": [
        "pcyc",
        "sports",
        "recreation",
        "youth",
        "police",
        "community",
        "leadership"
      ],
      "minimum_age": 5,
      "maximum_age": 25,
      "youth_specific": true,
      "data_source": "pcyc_mega_expansion",
      "status": "active",
      "location": {
        "name": "PCYC Kallangur",
        "address": "1517 Anzac Avenue, Kallangur QLD 4503",
        "city": "Queensland",
        "state": "QLD",
        "postcode": "4503",
        "region": "moreton_bay",
        "coordinates": null
      },
      "contact": {
        "phone": "(07) 3204 5355",
        "email": "kallangur@pcyc.org.au"
      }
    },
    {
      "id": "015dc800-5994-4971-bffd-2b582c775a97",
      "organization_id": "5f890b79-afa1-4ab7-b30a-5e7e4be5c091",
      "name": "PCYC Kingston",
      "description": "Youth development programs including sports, recreation, education support, leadership development, and crime prevention. Programs for ages 5-25 including after-school care, holiday programs, fitness classes, and mentoring.",
      "categories": [
        "youth_development",
        "sports_recreation",
        "crime_prevention",
        "education_support"
      ],
      "keywords": [
        "pcyc",
        "sports",
        "recreation",
        "youth",
        "police",
        "community",
        "leadership"
      ],
      "minimum_age": 5,
      "maximum_age": 25,
      "youth_specific": true,
      "data_source": "pcyc_mega_expansion",
      "status": "active",
      "location": {
        "name": "PCYC Kingston",
        "address": "145 Klumpp Road, Kingston QLD 4114",
        "city": "Queensland",
        "state": "QLD",
        "postcode": "4114",
        "region": "logan",
        "coordinates": null
      },
      "contact": {
        "phone": "(07) 3290 5555",
        "email": "kingston@pcyc.org.au"
      }
    },
    {
      "id": "1d819c74-c982-46b2-ac0d-10ea73199279",
      "organization_id": "5f890b79-afa1-4ab7-b30a-5e7e4be5c091",
      "name": "PCYC Logan Central",
      "description": "Youth development programs including sports, recreation, education support, leadership development, and crime prevention. Programs for ages 5-25 including after-school care, holiday programs, fitness classes, and mentoring.",
      "categories": [
        "youth_development",
        "sports_recreation",
        "crime_prevention",
        "education_support"
      ],
      "keywords": [
        "pcyc",
        "sports",
        "recreation",
        "youth",
        "police",
        "community",
        "leadership"
      ],
      "minimum_age": 5,
      "maximum_age": 25,
      "youth_specific": true,
      "data_source": "pcyc_mega_expansion",
      "status": "active",
      "location": {
        "name": "PCYC Logan Central",
        "address": "150 Wembley Road, Logan Central QLD 4114",
        "city": "Logan",
        "state": "QLD",
        "postcode": "4114",
        "region": "logan",
        "coordinates": null
      },
      "contact": {
        "phone": "(07) 3299 7733",
        "email": "logancentral@pcyc.org.au"
      }
    },
    {
      "id": "ca0ad1b9-7290-44c4-b813-ed4c8be945b8",
      "organization_id": "5f890b79-afa1-4ab7-b30a-5e7e4be5c091",
      "name": "PCYC Mount Gravatt",
      "description": "Youth development programs including sports, recreation, education support, leadership development, and crime prevention. Programs for ages 5-25 including after-school care, holiday programs, fitness classes, and mentoring.",
      "categories": [
        "youth_development",
        "sports_recreation",
        "crime_prevention",
        "education_support"
      ],
      "keywords": [
        "pcyc",
        "sports",
        "recreation",
        "youth",
        "police",
        "community",
        "leadership"
      ],
      "minimum_age": 5,
      "maximum_age": 25,
      "youth_specific": true,
      "data_source": "pcyc_mega_expansion",
      "status": "active",
      "location": {
        "name": "PCYC Mount Gravatt",
        "address": "1409 Logan Road, Mount Gravatt QLD 4122",
        "city": "Logan",
        "state": "QLD",
        "postcode": "4122",
        "region": "brisbane",
        "coordinates": null
      },
      "contact": {
        "phone": "(07) 3349 7236",
        "email": "mountgravatt@pcyc.org.au"
      }
    },
    {
      "id": "c837f1ba-cb9a-4c94-9ad0-22cac702492b",
      "organization_id": "5f890b79-afa1-4ab7-b30a-5e7e4be5c091",
      "name": "PCYC Narangba",
      "description": "Youth development programs including sports, recreation, education support, leadership development, and crime prevention. Programs for ages 5-25 including after-school care, holiday programs, fitness classes, and mentoring.",
      "categories": [
        "youth_development",
        "sports_recreation",
        "crime_prevention",
        "education_support"
      ],
      "keywords": [
        "pcyc",
        "sports",
        "recreation",
        "youth",
        "police",
        "community",
        "leadership"
      ],
      "minimum_age": 5,
      "maximum_age": 25,
      "youth_specific": true,
      "data_source": "pcyc_mega_expansion",
      "status": "active",
      "location": {
        "name": "PCYC Narangba",
        "address": "2 Torrens Road, Narangba QLD 4504",
        "city": "Queensland",
        "state": "QLD",
        "postcode": "4504",
        "region": "moreton_bay",
        "coordinates": null
      },
      "contact": {
        "phone": "(07) 3888 1811",
        "email": "narangba@pcyc.org.au"
      }
    },
    {
      "id": "032472b0-3542-4fad-bf41-34be5460b417",
      "organization_id": "5f890b79-afa1-4ab7-b30a-5e7e4be5c091",
      "name": "PCYC Northgate",
      "description": "Youth development programs including sports, recreation, education support, leadership development, and crime prevention. Programs for ages 5-25 including after-school care, holiday programs, fitness classes, and mentoring.",
      "categories": [
        "youth_development",
        "sports_recreation",
        "crime_prevention",
        "education_support"
      ],
      "keywords": [
        "pcyc",
        "sports",
        "recreation",
        "youth",
        "police",
        "community",
        "leadership"
      ],
      "minimum_age": 5,
      "maximum_age": 25,
      "youth_specific": true,
      "data_source": "pcyc_mega_expansion",
      "status": "active",
      "location": {
        "name": "PCYC Northgate",
        "address": "681 Nudgee Road, Northgate QLD 4013",
        "city": "Queensland",
        "state": "QLD",
        "postcode": "4013",
        "region": "brisbane",
        "coordinates": null
      },
      "contact": {
        "phone": "(07) 3267 8566",
        "email": "northgate@pcyc.org.au"
      }
    },
    {
      "id": "67ed2e9b-475e-450c-9387-d7e3d4c9eb96",
      "organization_id": "5f890b79-afa1-4ab7-b30a-5e7e4be5c091",
      "name": "PCYC Pine Rivers",
      "description": "Youth development programs including sports, recreation, education support, leadership development, and crime prevention. Programs for ages 5-25 including after-school care, holiday programs, fitness classes, and mentoring.",
      "categories": [
        "youth_development",
        "sports_recreation",
        "crime_prevention",
        "education_support"
      ],
      "keywords": [
        "pcyc",
        "sports",
        "recreation",
        "youth",
        "police",
        "community",
        "leadership"
      ],
      "minimum_age": 5,
      "maximum_age": 25,
      "youth_specific": true,
      "data_source": "pcyc_mega_expansion",
      "status": "active",
      "location": {
        "name": "PCYC Pine Rivers",
        "address": "24 Gympie Road, Strathpine QLD 4500",
        "city": "Queensland",
        "state": "QLD",
        "postcode": "4500",
        "region": "moreton_bay",
        "coordinates": null
      },
      "contact": {
        "phone": "(07) 3205 1933",
        "email": "pinerivers@pcyc.org.au"
      }
    },
    {
      "id": "43e46ea1-f070-43e8-a488-514922874d6f",
      "organization_id": "5f890b79-afa1-4ab7-b30a-5e7e4be5c091",
      "name": "PCYC Redbank Plains",
      "description": "Youth development programs including sports, recreation, education support, leadership development, and crime prevention. Programs for ages 5-25 including after-school care, holiday programs, fitness classes, and mentoring.",
      "categories": [
        "youth_development",
        "sports_recreation",
        "crime_prevention",
        "education_support"
      ],
      "keywords": [
        "pcyc",
        "sports",
        "recreation",
        "youth",
        "police",
        "community",
        "leadership"
      ],
      "minimum_age": 5,
      "maximum_age": 25,
      "youth_specific": true,
      "data_source": "pcyc_mega_expansion",
      "status": "active",
      "location": {
        "name": "PCYC Redbank Plains",
        "address": "356 Redbank Plains Road, Redbank Plains QLD 4301",
        "city": "Queensland",
        "state": "QLD",
        "postcode": "4301",
        "region": "ipswich",
        "coordinates": null
      },
      "contact": {
        "phone": "(07) 3818 1500",
        "email": "redbankplains@pcyc.org.au"
      }
    },
    {
      "id": "53a4f625-a0d6-406e-ac41-1b501bb84368",
      "organization_id": "5f890b79-afa1-4ab7-b30a-5e7e4be5c091",
      "name": "PCYC Redcliffe",
      "description": "Youth development programs including sports, recreation, education support, leadership development, and crime prevention. Programs for ages 5-25 including after-school care, holiday programs, fitness classes, and mentoring.",
      "categories": [
        "youth_development",
        "sports_recreation",
        "crime_prevention",
        "education_support"
      ],
      "keywords": [
        "pcyc",
        "sports",
        "recreation",
        "youth",
        "police",
        "community",
        "leadership"
      ],
      "minimum_age": 5,
      "maximum_age": 25,
      "youth_specific": true,
      "data_source": "pcyc_mega_expansion",
      "status": "active",
      "location": {
        "name": "PCYC Redcliffe",
        "address": "165 Sutton Street, Redcliffe QLD 4020",
        "city": "Queensland",
        "state": "QLD",
        "postcode": "4020",
        "region": "moreton_bay",
        "coordinates": null
      },
      "contact": {
        "phone": "(07) 3897 0611",
        "email": "redcliffe@pcyc.org.au"
      }
    },
    {
      "id": "7da2e8ed-6275-4960-8d78-6934d62a5fdb",
      "organization_id": "5f890b79-afa1-4ab7-b30a-5e7e4be5c091",
      "name": "PCYC Redlands",
      "description": "Youth development programs including sports, recreation, education support, leadership development, and crime prevention. Programs for ages 5-25 including after-school care, holiday programs, fitness classes, and mentoring.",
      "categories": [
        "youth_development",
        "sports_recreation",
        "crime_prevention",
        "education_support"
      ],
      "keywords": [
        "pcyc",
        "sports",
        "recreation",
        "youth",
        "police",
        "community",
        "leadership"
      ],
      "minimum_age": 5,
      "maximum_age": 25,
      "youth_specific": true,
      "data_source": "pcyc_mega_expansion",
      "status": "active",
      "location": {
        "name": "PCYC Redlands",
        "address": "43-61 Bloomfield Street, Cleveland QLD 4163",
        "city": "Queensland",
        "state": "QLD",
        "postcode": "4163",
        "region": "redlands",
        "coordinates": null
      },
      "contact": {
        "phone": "(07) 3286 2844",
        "email": "redlands@pcyc.org.au"
      }
    },
    {
      "id": "c566aa59-9b35-4580-9a48-b302b21b7393",
      "organization_id": "5f890b79-afa1-4ab7-b30a-5e7e4be5c091",
      "name": "PCYC Sandgate",
      "description": "Youth development programs including sports, recreation, education support, leadership development, and crime prevention. Programs for ages 5-25 including after-school care, holiday programs, fitness classes, and mentoring.",
      "categories": [
        "youth_development",
        "sports_recreation",
        "crime_prevention",
        "education_support"
      ],
      "keywords": [
        "pcyc",
        "sports",
        "recreation",
        "youth",
        "police",
        "community",
        "leadership"
      ],
      "minimum_age": 5,
      "maximum_age": 25,
      "youth_specific": true,
      "data_source": "pcyc_mega_expansion",
      "status": "active",
      "location": {
        "name": "PCYC Sandgate",
        "address": "147 Seymour Street, Sandgate QLD 4017",
        "city": "Queensland",
        "state": "QLD",
        "postcode": "4017",
        "region": "brisbane",
        "coordinates": null
      },
      "contact": {
        "phone": "(07) 3269 3057",
        "email": "sandgate@pcyc.org.au"
      }
    },
    {
      "id": "e1b22b27-b8c7-46d1-8d27-5488614c843f",
      "organization_id": "5f890b79-afa1-4ab7-b30a-5e7e4be5c091",
      "name": "PCYC Springwood",
      "description": "Youth development programs including sports, recreation, education support, leadership development, and crime prevention. Programs for ages 5-25 including after-school care, holiday programs, fitness classes, and mentoring.",
      "categories": [
        "youth_development",
        "sports_recreation",
        "crime_prevention",
        "education_support"
      ],
      "keywords": [
        "pcyc",
        "sports",
        "recreation",
        "youth",
        "police",
        "community",
        "leadership"
      ],
      "minimum_age": 5,
      "maximum_age": 25,
      "youth_specific": true,
      "data_source": "pcyc_mega_expansion",
      "status": "active",
      "location": {
        "name": "PCYC Springwood",
        "address": "26 Cinderella Drive, Springwood QLD 4127",
        "city": "Queensland",
        "state": "QLD",
        "postcode": "4127",
        "region": "logan",
        "coordinates": null
      },
      "contact": {
        "phone": "(07) 3808 1844",
        "email": "springwood@pcyc.org.au"
      }
    },
    {
      "id": "a98f2280-6281-41ae-8d1e-96e0cf637ae1",
      "organization_id": "5f890b79-afa1-4ab7-b30a-5e7e4be5c091",
      "name": "PCYC The Gap",
      "description": "Youth development programs including sports, recreation, education support, leadership development, and crime prevention. Programs for ages 5-25 including after-school care, holiday programs, fitness classes, and mentoring.",
      "categories": [
        "youth_development",
        "sports_recreation",
        "crime_prevention",
        "education_support"
      ],
      "keywords": [
        "pcyc",
        "sports",
        "recreation",
        "youth",
        "police",
        "community",
        "leadership"
      ],
      "minimum_age": 5,
      "maximum_age": 25,
      "youth_specific": true,
      "data_source": "pcyc_mega_expansion",
      "status": "active",
      "location": {
        "name": "PCYC The Gap",
        "address": "1020 Waterworks Road, The Gap QLD 4061",
        "city": "Queensland",
        "state": "QLD",
        "postcode": "4061",
        "region": "brisbane",
        "coordinates": null
      },
      "contact": {
        "phone": "(07) 3300 4966",
        "email": "thegap@pcyc.org.au"
      }
    },
    {
      "id": "f79dc3bf-23d4-4353-aeaa-2c6386ebc158",
      "organization_id": "5f890b79-afa1-4ab7-b30a-5e7e4be5c091",
      "name": "PCYC Wynnum",
      "description": "Youth development programs including sports, recreation, education support, leadership development, and crime prevention. Programs for ages 5-25 including after-school care, holiday programs, fitness classes, and mentoring.",
      "categories": [
        "youth_development",
        "sports_recreation",
        "crime_prevention",
        "education_support"
      ],
      "keywords": [
        "pcyc",
        "sports",
        "recreation",
        "youth",
        "police",
        "community",
        "leadership"
      ],
      "minimum_age": 5,
      "maximum_age": 25,
      "youth_specific": true,
      "data_source": "pcyc_mega_expansion",
      "status": "active",
      "location": {
        "name": "PCYC Wynnum",
        "address": "105 Burnett Street, Wynnum QLD 4178",
        "city": "Queensland",
        "state": "QLD",
        "postcode": "4178",
        "region": "brisbane",
        "coordinates": null
      },
      "contact": {
        "phone": "(07) 3396 5455",
        "email": "wynnum@pcyc.org.au"
      }
    },
    {
      "id": "b2931d62-da72-441d-921a-6dd7b275c6b1",
      "organization_id": "5f890b79-afa1-4ab7-b30a-5e7e4be5c091",
      "name": "PCYC Zillmere",
      "description": "Youth development programs including sports, recreation, education support, leadership development, and crime prevention. Programs for ages 5-25 including after-school care, holiday programs, fitness classes, and mentoring.",
      "categories": [
        "youth_development",
        "sports_recreation",
        "crime_prevention",
        "education_support"
      ],
      "keywords": [
        "pcyc",
        "sports",
        "recreation",
        "youth",
        "police",
        "community",
        "leadership"
      ],
      "minimum_age": 5,
      "maximum_age": 25,
      "youth_specific": true,
      "data_source": "pcyc_mega_expansion",
      "status": "active",
      "location": {
        "name": "PCYC Zillmere",
        "address": "81 Zillmere Road, Zillmere QLD 4034",
        "city": "Queensland",
        "state": "QLD",
        "postcode": "4034",
        "region": "brisbane",
        "coordinates": null
      },
      "contact": {
        "phone": "(07) 3263 4577",
        "email": "zillmere@pcyc.org.au"
      }
    },
    {
      "id": "7903cd4f-e056-4993-a5cf-063cb9398c02",
      "organization_id": "5f890b79-afa1-4ab7-b30a-5e7e4be5c091",
      "name": "PCYC Burleigh Heads",
      "description": "Youth development programs including sports, recreation, education support, leadership development, and crime prevention. Programs for ages 5-25 including after-school care, holiday programs, fitness classes, and mentoring.",
      "categories": [
        "youth_development",
        "sports_recreation",
        "crime_prevention",
        "education_support"
      ],
      "keywords": [
        "pcyc",
        "sports",
        "recreation",
        "youth",
        "police",
        "community",
        "leadership"
      ],
      "minimum_age": 5,
      "maximum_age": 25,
      "youth_specific": true,
      "data_source": "pcyc_mega_expansion",
      "status": "active",
      "location": {
        "name": "PCYC Burleigh Heads",
        "address": "1806 Gold Coast Highway, Burleigh Heads QLD 4220",
        "city": "Gold Coast",
        "state": "QLD",
        "postcode": "4220",
        "region": "gold_coast",
        "coordinates": null
      },
      "contact": {
        "phone": "(07) 5535 3311",
        "email": "burleighheads@pcyc.org.au"
      }
    },
    {
      "id": "8e7d07cb-407f-4693-9484-4a9b68ca992a",
      "organization_id": "5f890b79-afa1-4ab7-b30a-5e7e4be5c091",
      "name": "PCYC Coomera",
      "description": "Youth development programs including sports, recreation, education support, leadership development, and crime prevention. Programs for ages 5-25 including after-school care, holiday programs, fitness classes, and mentoring.",
      "categories": [
        "youth_development",
        "sports_recreation",
        "crime_prevention",
        "education_support"
      ],
      "keywords": [
        "pcyc",
        "sports",
        "recreation",
        "youth",
        "police",
        "community",
        "leadership"
      ],
      "minimum_age": 5,
      "maximum_age": 25,
      "youth_specific": true,
      "data_source": "pcyc_mega_expansion",
      "status": "active",
      "location": {
        "name": "PCYC Coomera",
        "address": "103-109 Foxwell Road, Coomera QLD 4209",
        "city": "Queensland",
        "state": "QLD",
        "postcode": "4209",
        "region": "gold_coast",
        "coordinates": null
      },
      "contact": {
        "phone": "(07) 5665 5777",
        "email": "coomera@pcyc.org.au"
      }
    },
    {
      "id": "26caa1dd-e714-4e11-999b-aed9c1a73ecd",
      "organization_id": "5f890b79-afa1-4ab7-b30a-5e7e4be5c091",
      "name": "PCYC Gold Coast",
      "description": "Youth development programs including sports, recreation, education support, leadership development, and crime prevention. Programs for ages 5-25 including after-school care, holiday programs, fitness classes, and mentoring.",
      "categories": [
        "youth_development",
        "sports_recreation",
        "crime_prevention",
        "education_support"
      ],
      "keywords": [
        "pcyc",
        "sports",
        "recreation",
        "youth",
        "police",
        "community",
        "leadership"
      ],
      "minimum_age": 5,
      "maximum_age": 25,
      "youth_specific": true,
      "data_source": "pcyc_mega_expansion",
      "status": "active",
      "location": {
        "name": "PCYC Gold Coast",
        "address": "36 Scarborough Street, Southport QLD 4215",
        "city": "Queensland",
        "state": "QLD",
        "postcode": "4215",
        "region": "gold_coast",
        "coordinates": null
      },
      "contact": {
        "phone": "(07) 5532 2823",
        "email": "goldcoast@pcyc.org.au"
      }
    },
    {
      "id": "b8da2c2e-51d2-475b-81fb-af067fd2dbea",
      "organization_id": "5f890b79-afa1-4ab7-b30a-5e7e4be5c091",
      "name": "PCYC Nerang",
      "description": "Youth development programs including sports, recreation, education support, leadership development, and crime prevention. Programs for ages 5-25 including after-school care, holiday programs, fitness classes, and mentoring.",
      "categories": [
        "youth_development",
        "sports_recreation",
        "crime_prevention",
        "education_support"
      ],
      "keywords": [
        "pcyc",
        "sports",
        "recreation",
        "youth",
        "police",
        "community",
        "leadership"
      ],
      "minimum_age": 5,
      "maximum_age": 25,
      "youth_specific": true,
      "data_source": "pcyc_mega_expansion",
      "status": "active",
      "location": {
        "name": "PCYC Nerang",
        "address": "57 Price Street, Nerang QLD 4211",
        "city": "Queensland",
        "state": "QLD",
        "postcode": "4211",
        "region": "gold_coast",
        "coordinates": null
      },
      "contact": {
        "phone": "(07) 5596 7311",
        "email": "nerang@pcyc.org.au"
      }
    },
    {
      "id": "fa5775f9-043a-47ca-a496-1f429842a90d",
      "organization_id": "5f890b79-afa1-4ab7-b30a-5e7e4be5c091",
      "name": "PCYC Robina",
      "description": "Youth development programs including sports, recreation, education support, leadership development, and crime prevention. Programs for ages 5-25 including after-school care, holiday programs, fitness classes, and mentoring.",
      "categories": [
        "youth_development",
        "sports_recreation",
        "crime_prevention",
        "education_support"
      ],
      "keywords": [
        "pcyc",
        "sports",
        "recreation",
        "youth",
        "police",
        "community",
        "leadership"
      ],
      "minimum_age": 5,
      "maximum_age": 25,
      "youth_specific": true,
      "data_source": "pcyc_mega_expansion",
      "status": "active",
      "location": {
        "name": "PCYC Robina",
        "address": "184 Scottsdale Drive, Robina QLD 4226",
        "city": "Queensland",
        "state": "QLD",
        "postcode": "4226",
        "region": "gold_coast",
        "coordinates": null
      },
      "contact": {
        "phone": "(07) 5562 1044",
        "email": "robina@pcyc.org.au"
      }
    },
    {
      "id": "55cad413-74f5-4869-b340-d55d8418c8ee",
      "organization_id": "5f890b79-afa1-4ab7-b30a-5e7e4be5c091",
      "name": "PCYC Surfers Paradise",
      "description": "Youth development programs including sports, recreation, education support, leadership development, and crime prevention. Programs for ages 5-25 including after-school care, holiday programs, fitness classes, and mentoring.",
      "categories": [
        "youth_development",
        "sports_recreation",
        "crime_prevention",
        "education_support"
      ],
      "keywords": [
        "pcyc",
        "sports",
        "recreation",
        "youth",
        "police",
        "community",
        "leadership"
      ],
      "minimum_age": 5,
      "maximum_age": 25,
      "youth_specific": true,
      "data_source": "pcyc_mega_expansion",
      "status": "active",
      "location": {
        "name": "PCYC Surfers Paradise",
        "address": "3184 Surfers Paradise Boulevard, Surfers Paradise QLD 4217",
        "city": "Queensland",
        "state": "QLD",
        "postcode": "4217",
        "region": "gold_coast",
        "coordinates": null
      },
      "contact": {
        "phone": "(07) 5592 2877",
        "email": "surfersparadise@pcyc.org.au"
      }
    },
    {
      "id": "dc126296-9dce-46a1-8448-4da670b0a40e",
      "organization_id": "5f890b79-afa1-4ab7-b30a-5e7e4be5c091",
      "name": "PCYC Caloundra",
      "description": "Youth development programs including sports, recreation, education support, leadership development, and crime prevention. Programs for ages 5-25 including after-school care, holiday programs, fitness classes, and mentoring.",
      "categories": [
        "youth_development",
        "sports_recreation",
        "crime_prevention",
        "education_support"
      ],
      "keywords": [
        "pcyc",
        "sports",
        "recreation",
        "youth",
        "police",
        "community",
        "leadership"
      ],
      "minimum_age": 5,
      "maximum_age": 25,
      "youth_specific": true,
      "data_source": "pcyc_mega_expansion",
      "status": "active",
      "location": {
        "name": "PCYC Caloundra",
        "address": "18 Cannan Street, Caloundra QLD 4551",
        "city": "Queensland",
        "state": "QLD",
        "postcode": "4551",
        "region": "sunshine_coast",
        "coordinates": null
      },
      "contact": {
        "phone": "(07) 5491 1711",
        "email": "caloundra@pcyc.org.au"
      }
    },
    {
      "id": "c40d7047-992f-4fbc-b3b6-1e6c71ebd729",
      "organization_id": "5f890b79-afa1-4ab7-b30a-5e7e4be5c091",
      "name": "PCYC Kawana",
      "description": "Youth development programs including sports, recreation, education support, leadership development, and crime prevention. Programs for ages 5-25 including after-school care, holiday programs, fitness classes, and mentoring.",
      "categories": [
        "youth_development",
        "sports_recreation",
        "crime_prevention",
        "education_support"
      ],
      "keywords": [
        "pcyc",
        "sports",
        "recreation",
        "youth",
        "police",
        "community",
        "leadership"
      ],
      "minimum_age": 5,
      "maximum_age": 25,
      "youth_specific": true,
      "data_source": "pcyc_mega_expansion",
      "status": "active",
      "location": {
        "name": "PCYC Kawana",
        "address": "7 Sportsmans Parade, Bokarina QLD 4575",
        "city": "Queensland",
        "state": "QLD",
        "postcode": "4575",
        "region": "sunshine_coast",
        "coordinates": null
      },
      "contact": {
        "phone": "(07) 5493 8100",
        "email": "kawana@pcyc.org.au"
      }
    },
    {
      "id": "6438bafb-4b86-4d6c-a1c8-de116f6a0158",
      "organization_id": "5f890b79-afa1-4ab7-b30a-5e7e4be5c091",
      "name": "PCYC Maroochydore",
      "description": "Youth development programs including sports, recreation, education support, leadership development, and crime prevention. Programs for ages 5-25 including after-school care, holiday programs, fitness classes, and mentoring.",
      "categories": [
        "youth_development",
        "sports_recreation",
        "crime_prevention",
        "education_support"
      ],
      "keywords": [
        "pcyc",
        "sports",
        "recreation",
        "youth",
        "police",
        "community",
        "leadership"
      ],
      "minimum_age": 5,
      "maximum_age": 25,
      "youth_specific": true,
      "data_source": "pcyc_mega_expansion",
      "status": "active",
      "location": {
        "name": "PCYC Maroochydore",
        "address": "105 Sugar Road, Maroochydore QLD 4558",
        "city": "Queensland",
        "state": "QLD",
        "postcode": "4558",
        "region": "sunshine_coast",
        "coordinates": null
      },
      "contact": {
        "phone": "(07) 5443 6866",
        "email": "maroochydore@pcyc.org.au"
      }
    },
    {
      "id": "a8274b80-f572-4b9c-982b-61e30677a2bc",
      "organization_id": "5f890b79-afa1-4ab7-b30a-5e7e4be5c091",
      "name": "PCYC Nambour",
      "description": "Youth development programs including sports, recreation, education support, leadership development, and crime prevention. Programs for ages 5-25 including after-school care, holiday programs, fitness classes, and mentoring.",
      "categories": [
        "youth_development",
        "sports_recreation",
        "crime_prevention",
        "education_support"
      ],
      "keywords": [
        "pcyc",
        "sports",
        "recreation",
        "youth",
        "police",
        "community",
        "leadership"
      ],
      "minimum_age": 5,
      "maximum_age": 25,
      "youth_specific": true,
      "data_source": "pcyc_mega_expansion",
      "status": "active",
      "location": {
        "name": "PCYC Nambour",
        "address": "88 Currie Street, Nambour QLD 4560",
        "city": "Queensland",
        "state": "QLD",
        "postcode": "4560",
        "region": "sunshine_coast",
        "coordinates": null
      },
      "contact": {
        "phone": "(07) 5441 1851",
        "email": "nambour@pcyc.org.au"
      }
    },
    {
      "id": "8bf1b45b-0809-4652-b46c-19edb68a3304",
      "organization_id": "5f890b79-afa1-4ab7-b30a-5e7e4be5c091",
      "name": "PCYC Noosa",
      "description": "Youth development programs including sports, recreation, education support, leadership development, and crime prevention. Programs for ages 5-25 including after-school care, holiday programs, fitness classes, and mentoring.",
      "categories": [
        "youth_development",
        "sports_recreation",
        "crime_prevention",
        "education_support"
      ],
      "keywords": [
        "pcyc",
        "sports",
        "recreation",
        "youth",
        "police",
        "community",
        "leadership"
      ],
      "minimum_age": 5,
      "maximum_age": 25,
      "youth_specific": true,
      "data_source": "pcyc_mega_expansion",
      "status": "active",
      "location": {
        "name": "PCYC Noosa",
        "address": "9 Hilton Terrace, Tewantin QLD 4565",
        "city": "Queensland",
        "state": "QLD",
        "postcode": "4565",
        "region": "sunshine_coast",
        "coordinates": null
      },
      "contact": {
        "phone": "(07) 5447 1077",
        "email": "noosa@pcyc.org.au"
      }
    },
    {
      "id": "1d8ab55e-b7ff-4bee-ad80-9255e53a80ec",
      "organization_id": "5f890b79-afa1-4ab7-b30a-5e7e4be5c091",
      "name": "PCYC Bundaberg",
      "description": "Youth development programs including sports, recreation, education support, leadership development, and crime prevention. Programs for ages 5-25 including after-school care, holiday programs, fitness classes, and mentoring.",
      "categories": [
        "youth_development",
        "sports_recreation",
        "crime_prevention",
        "education_support"
      ],
      "keywords": [
        "pcyc",
        "sports",
        "recreation",
        "youth",
        "police",
        "community",
        "leadership"
      ],
      "minimum_age": 5,
      "maximum_age": 25,
      "youth_specific": true,
      "data_source": "pcyc_mega_expansion",
      "status": "active",
      "location": {
        "name": "PCYC Bundaberg",
        "address": "1 Kendalls Road, Bundaberg QLD 4670",
        "city": "Bundaberg",
        "state": "QLD",
        "postcode": "4670",
        "region": "bundaberg",
        "coordinates": null
      },
      "contact": {
        "phone": "(07) 4153 1811",
        "email": "bundaberg@pcyc.org.au"
      }
    },
    {
      "id": "be99eed4-6589-4c20-b228-c82cb4627c88",
      "organization_id": "5f890b79-afa1-4ab7-b30a-5e7e4be5c091",
      "name": "PCYC Cairns",
      "description": "Youth development programs including sports, recreation, education support, leadership development, and crime prevention. Programs for ages 5-25 including after-school care, holiday programs, fitness classes, and mentoring.",
      "categories": [
        "youth_development",
        "sports_recreation",
        "crime_prevention",
        "education_support"
      ],
      "keywords": [
        "pcyc",
        "sports",
        "recreation",
        "youth",
        "police",
        "community",
        "leadership"
      ],
      "minimum_age": 5,
      "maximum_age": 25,
      "youth_specific": true,
      "data_source": "pcyc_mega_expansion",
      "status": "active",
      "location": {
        "name": "PCYC Cairns",
        "address": "1-5 Sheridan Street, Cairns QLD 4870",
        "city": "Cairns",
        "state": "QLD",
        "postcode": "4870",
        "region": "cairns",
        "coordinates": null
      },
      "contact": {
        "phone": "(07) 4031 1488",
        "email": "cairns@pcyc.org.au"
      }
    },
    {
      "id": "be94f13b-f732-4697-afb9-0c5f1415c022",
      "organization_id": "5f890b79-afa1-4ab7-b30a-5e7e4be5c091",
      "name": "PCYC Charleville",
      "description": "Youth development programs including sports, recreation, education support, leadership development, and crime prevention. Programs for ages 5-25 including after-school care, holiday programs, fitness classes, and mentoring.",
      "categories": [
        "youth_development",
        "sports_recreation",
        "crime_prevention",
        "education_support"
      ],
      "keywords": [
        "pcyc",
        "sports",
        "recreation",
        "youth",
        "police",
        "community",
        "leadership"
      ],
      "minimum_age": 5,
      "maximum_age": 25,
      "youth_specific": true,
      "data_source": "pcyc_mega_expansion",
      "status": "active",
      "location": {
        "name": "PCYC Charleville",
        "address": "89 Alfred Street, Charleville QLD 4470",
        "city": "Queensland",
        "state": "QLD",
        "postcode": "4470",
        "region": "charleville",
        "coordinates": null
      },
      "contact": {
        "phone": "(07) 4654 3544",
        "email": "charleville@pcyc.org.au"
      }
    },
    {
      "id": "356b0d12-255f-4a60-9369-685b2ea4ad55",
      "organization_id": "5f890b79-afa1-4ab7-b30a-5e7e4be5c091",
      "name": "PCYC Charters Towers",
      "description": "Youth development programs including sports, recreation, education support, leadership development, and crime prevention. Programs for ages 5-25 including after-school care, holiday programs, fitness classes, and mentoring.",
      "categories": [
        "youth_development",
        "sports_recreation",
        "crime_prevention",
        "education_support"
      ],
      "keywords": [
        "pcyc",
        "sports",
        "recreation",
        "youth",
        "police",
        "community",
        "leadership"
      ],
      "minimum_age": 5,
      "maximum_age": 25,
      "youth_specific": true,
      "data_source": "pcyc_mega_expansion",
      "status": "active",
      "location": {
        "name": "PCYC Charters Towers",
        "address": "58 Mosman Street, Charters Towers QLD 4820",
        "city": "Queensland",
        "state": "QLD",
        "postcode": "4820",
        "region": "charters_towers",
        "coordinates": null
      },
      "contact": {
        "phone": "(07) 4787 1985",
        "email": "charterstowers@pcyc.org.au"
      }
    },
    {
      "id": "8aa14bca-2c7c-4718-bf2a-3187872cc874",
      "organization_id": "5f890b79-afa1-4ab7-b30a-5e7e4be5c091",
      "name": "PCYC Chinchilla",
      "description": "Youth development programs including sports, recreation, education support, leadership development, and crime prevention. Programs for ages 5-25 including after-school care, holiday programs, fitness classes, and mentoring.",
      "categories": [
        "youth_development",
        "sports_recreation",
        "crime_prevention",
        "education_support"
      ],
      "keywords": [
        "pcyc",
        "sports",
        "recreation",
        "youth",
        "police",
        "community",
        "leadership"
      ],
      "minimum_age": 5,
      "maximum_age": 25,
      "youth_specific": true,
      "data_source": "pcyc_mega_expansion",
      "status": "active",
      "location": {
        "name": "PCYC Chinchilla",
        "address": "45 Heeney Street, Chinchilla QLD 4413",
        "city": "Queensland",
        "state": "QLD",
        "postcode": "4413",
        "region": "chinchilla",
        "coordinates": null
      },
      "contact": {
        "phone": "(07) 4662 8355",
        "email": "chinchilla@pcyc.org.au"
      }
    },
    {
      "id": "106ade24-de2c-45dc-9098-e767c7a01857",
      "organization_id": "5f890b79-afa1-4ab7-b30a-5e7e4be5c091",
      "name": "PCYC Dalby",
      "description": "Youth development programs including sports, recreation, education support, leadership development, and crime prevention. Programs for ages 5-25 including after-school care, holiday programs, fitness classes, and mentoring.",
      "categories": [
        "youth_development",
        "sports_recreation",
        "crime_prevention",
        "education_support"
      ],
      "keywords": [
        "pcyc",
        "sports",
        "recreation",
        "youth",
        "police",
        "community",
        "leadership"
      ],
      "minimum_age": 5,
      "maximum_age": 25,
      "youth_specific": true,
      "data_source": "pcyc_mega_expansion",
      "status": "active",
      "location": {
        "name": "PCYC Dalby",
        "address": "58 Condamine Street, Dalby QLD 4405",
        "city": "Queensland",
        "state": "QLD",
        "postcode": "4405",
        "region": "dalby",
        "coordinates": null
      },
      "contact": {
        "phone": "(07) 4662 3844",
        "email": "dalby@pcyc.org.au"
      }
    },
    {
      "id": "a26b5e78-cd53-45af-9e73-c4fc92b23074",
      "organization_id": "5f890b79-afa1-4ab7-b30a-5e7e4be5c091",
      "name": "PCYC Emerald",
      "description": "Youth development programs including sports, recreation, education support, leadership development, and crime prevention. Programs for ages 5-25 including after-school care, holiday programs, fitness classes, and mentoring.",
      "categories": [
        "youth_development",
        "sports_recreation",
        "crime_prevention",
        "education_support"
      ],
      "keywords": [
        "pcyc",
        "sports",
        "recreation",
        "youth",
        "police",
        "community",
        "leadership"
      ],
      "minimum_age": 5,
      "maximum_age": 25,
      "youth_specific": true,
      "data_source": "pcyc_mega_expansion",
      "status": "active",
      "location": {
        "name": "PCYC Emerald",
        "address": "1 Hospital Road, Emerald QLD 4720",
        "city": "Queensland",
        "state": "QLD",
        "postcode": "4720",
        "region": "emerald",
        "coordinates": null
      },
      "contact": {
        "phone": "(07) 4982 4711",
        "email": "emerald@pcyc.org.au"
      }
    },
    {
      "id": "86242e30-ae1a-4784-ae17-6aef5c53a98b",
      "organization_id": "5f890b79-afa1-4ab7-b30a-5e7e4be5c091",
      "name": "PCYC Gladstone",
      "description": "Youth development programs including sports, recreation, education support, leadership development, and crime prevention. Programs for ages 5-25 including after-school care, holiday programs, fitness classes, and mentoring.",
      "categories": [
        "youth_development",
        "sports_recreation",
        "crime_prevention",
        "education_support"
      ],
      "keywords": [
        "pcyc",
        "sports",
        "recreation",
        "youth",
        "police",
        "community",
        "leadership"
      ],
      "minimum_age": 5,
      "maximum_age": 25,
      "youth_specific": true,
      "data_source": "pcyc_mega_expansion",
      "status": "active",
      "location": {
        "name": "PCYC Gladstone",
        "address": "39 Goondoon Street, Gladstone QLD 4680",
        "city": "Gladstone",
        "state": "QLD",
        "postcode": "4680",
        "region": "gladstone",
        "coordinates": null
      },
      "contact": {
        "phone": "(07) 4972 5877",
        "email": "gladstone@pcyc.org.au"
      }
    },
    {
      "id": "1814fa92-2a96-4e58-a627-ed29bae84402",
      "organization_id": "5f890b79-afa1-4ab7-b30a-5e7e4be5c091",
      "name": "PCYC Gympie",
      "description": "Youth development programs including sports, recreation, education support, leadership development, and crime prevention. Programs for ages 5-25 including after-school care, holiday programs, fitness classes, and mentoring.",
      "categories": [
        "youth_development",
        "sports_recreation",
        "crime_prevention",
        "education_support"
      ],
      "keywords": [
        "pcyc",
        "sports",
        "recreation",
        "youth",
        "police",
        "community",
        "leadership"
      ],
      "minimum_age": 5,
      "maximum_age": 25,
      "youth_specific": true,
      "data_source": "pcyc_mega_expansion",
      "status": "active",
      "location": {
        "name": "PCYC Gympie",
        "address": "3 Lawrence Street, Gympie QLD 4570",
        "city": "Queensland",
        "state": "QLD",
        "postcode": "4570",
        "region": "gympie",
        "coordinates": null
      },
      "contact": {
        "phone": "(07) 5482 4722",
        "email": "gympie@pcyc.org.au"
      }
    },
    {
      "id": "374e722c-7c82-4780-9cf7-eac4af980ab6",
      "organization_id": "5f890b79-afa1-4ab7-b30a-5e7e4be5c091",
      "name": "PCYC Hervey Bay",
      "description": "Youth development programs including sports, recreation, education support, leadership development, and crime prevention. Programs for ages 5-25 including after-school care, holiday programs, fitness classes, and mentoring.",
      "categories": [
        "youth_development",
        "sports_recreation",
        "crime_prevention",
        "education_support"
      ],
      "keywords": [
        "pcyc",
        "sports",
        "recreation",
        "youth",
        "police",
        "community",
        "leadership"
      ],
      "minimum_age": 5,
      "maximum_age": 25,
      "youth_specific": true,
      "data_source": "pcyc_mega_expansion",
      "status": "active",
      "location": {
        "name": "PCYC Hervey Bay",
        "address": "351 The Esplanade, Hervey Bay QLD 4655",
        "city": "Hervey Bay",
        "state": "QLD",
        "postcode": "4655",
        "region": "fraser_coast",
        "coordinates": null
      },
      "contact": {
        "phone": "(07) 4124 8544",
        "email": "herveybay@pcyc.org.au"
      }
    },
    {
      "id": "2c2e5cb6-7b92-4b9f-ae1d-596a761a279d",
      "organization_id": "5f890b79-afa1-4ab7-b30a-5e7e4be5c091",
      "name": "PCYC Innisfail",
      "description": "Youth development programs including sports, recreation, education support, leadership development, and crime prevention. Programs for ages 5-25 including after-school care, holiday programs, fitness classes, and mentoring.",
      "categories": [
        "youth_development",
        "sports_recreation",
        "crime_prevention",
        "education_support"
      ],
      "keywords": [
        "pcyc",
        "sports",
        "recreation",
        "youth",
        "police",
        "community",
        "leadership"
      ],
      "minimum_age": 5,
      "maximum_age": 25,
      "youth_specific": true,
      "data_source": "pcyc_mega_expansion",
      "status": "active",
      "location": {
        "name": "PCYC Innisfail",
        "address": "2 Rankin Street, Innisfail QLD 4860",
        "city": "Queensland",
        "state": "QLD",
        "postcode": "4860",
        "region": "innisfail",
        "coordinates": null
      },
      "contact": {
        "phone": "(07) 4061 6822",
        "email": "innisfail@pcyc.org.au"
      }
    },
    {
      "id": "c9ffb312-a68d-42b9-bc25-831bb4040ffa",
      "organization_id": "5f890b79-afa1-4ab7-b30a-5e7e4be5c091",
      "name": "PCYC Kingaroy",
      "description": "Youth development programs including sports, recreation, education support, leadership development, and crime prevention. Programs for ages 5-25 including after-school care, holiday programs, fitness classes, and mentoring.",
      "categories": [
        "youth_development",
        "sports_recreation",
        "crime_prevention",
        "education_support"
      ],
      "keywords": [
        "pcyc",
        "sports",
        "recreation",
        "youth",
        "police",
        "community",
        "leadership"
      ],
      "minimum_age": 5,
      "maximum_age": 25,
      "youth_specific": true,
      "data_source": "pcyc_mega_expansion",
      "status": "active",
      "location": {
        "name": "PCYC Kingaroy",
        "address": "123 Haly Street, Kingaroy QLD 4610",
        "city": "Queensland",
        "state": "QLD",
        "postcode": "4610",
        "region": "kingaroy",
        "coordinates": null
      },
      "contact": {
        "phone": "(07) 4162 6100",
        "email": "kingaroy@pcyc.org.au"
      }
    },
    {
      "id": "6d8281b1-2b9b-4592-b9e1-ab92afe166dd",
      "organization_id": "5f890b79-afa1-4ab7-b30a-5e7e4be5c091",
      "name": "PCYC Longreach",
      "description": "Youth development programs including sports, recreation, education support, leadership development, and crime prevention. Programs for ages 5-25 including after-school care, holiday programs, fitness classes, and mentoring.",
      "categories": [
        "youth_development",
        "sports_recreation",
        "crime_prevention",
        "education_support"
      ],
      "keywords": [
        "pcyc",
        "sports",
        "recreation",
        "youth",
        "police",
        "community",
        "leadership"
      ],
      "minimum_age": 5,
      "maximum_age": 25,
      "youth_specific": true,
      "data_source": "pcyc_mega_expansion",
      "status": "active",
      "location": {
        "name": "PCYC Longreach",
        "address": "74 Galah Street, Longreach QLD 4730",
        "city": "Queensland",
        "state": "QLD",
        "postcode": "4730",
        "region": "longreach",
        "coordinates": null
      },
      "contact": {
        "phone": "(07) 4658 4277",
        "email": "longreach@pcyc.org.au"
      }
    },
    {
      "id": "83c712c3-ec24-4714-bd63-2c0ac09e15a4",
      "organization_id": "5f890b79-afa1-4ab7-b30a-5e7e4be5c091",
      "name": "PCYC Mackay",
      "description": "Youth development programs including sports, recreation, education support, leadership development, and crime prevention. Programs for ages 5-25 including after-school care, holiday programs, fitness classes, and mentoring.",
      "categories": [
        "youth_development",
        "sports_recreation",
        "crime_prevention",
        "education_support"
      ],
      "keywords": [
        "pcyc",
        "sports",
        "recreation",
        "youth",
        "police",
        "community",
        "leadership"
      ],
      "minimum_age": 5,
      "maximum_age": 25,
      "youth_specific": true,
      "data_source": "pcyc_mega_expansion",
      "status": "active",
      "location": {
        "name": "PCYC Mackay",
        "address": "22 Brisbane Street, Mackay QLD 4740",
        "city": "Brisbane",
        "state": "QLD",
        "postcode": "4740",
        "region": "mackay",
        "coordinates": null
      },
      "contact": {
        "phone": "(07) 4957 2144",
        "email": "mackay@pcyc.org.au"
      }
    },
    {
      "id": "b7503717-02da-4d04-8cf1-77827799198e",
      "organization_id": "5f890b79-afa1-4ab7-b30a-5e7e4be5c091",
      "name": "PCYC Maryborough",
      "description": "Youth development programs including sports, recreation, education support, leadership development, and crime prevention. Programs for ages 5-25 including after-school care, holiday programs, fitness classes, and mentoring.",
      "categories": [
        "youth_development",
        "sports_recreation",
        "crime_prevention",
        "education_support"
      ],
      "keywords": [
        "pcyc",
        "sports",
        "recreation",
        "youth",
        "police",
        "community",
        "leadership"
      ],
      "minimum_age": 5,
      "maximum_age": 25,
      "youth_specific": true,
      "data_source": "pcyc_mega_expansion",
      "status": "active",
      "location": {
        "name": "PCYC Maryborough",
        "address": "180 Adelaide Street, Maryborough QLD 4650",
        "city": "Queensland",
        "state": "QLD",
        "postcode": "4650",
        "region": "fraser_coast",
        "coordinates": null
      },
      "contact": {
        "phone": "(07) 4121 4722",
        "email": "maryborough@pcyc.org.au"
      }
    },
    {
      "id": "8fcbc986-8d56-42ab-bc4a-34a1d5c679fe",
      "organization_id": "5f890b79-afa1-4ab7-b30a-5e7e4be5c091",
      "name": "PCYC Mount Isa",
      "description": "Youth development programs including sports, recreation, education support, leadership development, and crime prevention. Programs for ages 5-25 including after-school care, holiday programs, fitness classes, and mentoring.",
      "categories": [
        "youth_development",
        "sports_recreation",
        "crime_prevention",
        "education_support"
      ],
      "keywords": [
        "pcyc",
        "sports",
        "recreation",
        "youth",
        "police",
        "community",
        "leadership"
      ],
      "minimum_age": 5,
      "maximum_age": 25,
      "youth_specific": true,
      "data_source": "pcyc_mega_expansion",
      "status": "active",
      "location": {
        "name": "PCYC Mount Isa",
        "address": "23 Simpson Street, Mount Isa QLD 4825",
        "city": "Mount Isa",
        "state": "QLD",
        "postcode": "4825",
        "region": "mount_isa",
        "coordinates": null
      },
      "contact": {
        "phone": "(07) 4743 7355",
        "email": "mountisa@pcyc.org.au"
      }
    },
    {
      "id": "e673740f-e8e6-4d17-96fb-21b97e6647cf",
      "organization_id": "5f890b79-afa1-4ab7-b30a-5e7e4be5c091",
      "name": "PCYC Proserpine",
      "description": "Youth development programs including sports, recreation, education support, leadership development, and crime prevention. Programs for ages 5-25 including after-school care, holiday programs, fitness classes, and mentoring.",
      "categories": [
        "youth_development",
        "sports_recreation",
        "crime_prevention",
        "education_support"
      ],
      "keywords": [
        "pcyc",
        "sports",
        "recreation",
        "youth",
        "police",
        "community",
        "leadership"
      ],
      "minimum_age": 5,
      "maximum_age": 25,
      "youth_specific": true,
      "data_source": "pcyc_mega_expansion",
      "status": "active",
      "location": {
        "name": "PCYC Proserpine",
        "address": "22 Main Street, Proserpine QLD 4800",
        "city": "Queensland",
        "state": "QLD",
        "postcode": "4800",
        "region": "whitsundays",
        "coordinates": null
      },
      "contact": {
        "phone": "(07) 4945 4711",
        "email": "proserpine@pcyc.org.au"
      }
    },
    {
      "id": "ebc5741c-b893-4455-9d11-6dd76c99e199",
      "organization_id": "5f890b79-afa1-4ab7-b30a-5e7e4be5c091",
      "name": "PCYC Rockhampton",
      "description": "Youth development programs including sports, recreation, education support, leadership development, and crime prevention. Programs for ages 5-25 including after-school care, holiday programs, fitness classes, and mentoring.",
      "categories": [
        "youth_development",
        "sports_recreation",
        "crime_prevention",
        "education_support"
      ],
      "keywords": [
        "pcyc",
        "sports",
        "recreation",
        "youth",
        "police",
        "community",
        "leadership"
      ],
      "minimum_age": 5,
      "maximum_age": 25,
      "youth_specific": true,
      "data_source": "pcyc_mega_expansion",
      "status": "active",
      "location": {
        "name": "PCYC Rockhampton",
        "address": "208 Musgrave Street, Rockhampton QLD 4700",
        "city": "Rockhampton",
        "state": "QLD",
        "postcode": "4700",
        "region": "rockhampton",
        "coordinates": null
      },
      "contact": {
        "phone": "(07) 4922 4900",
        "email": "rockhampton@pcyc.org.au"
      }
    },
    {
      "id": "95bcbe3f-1323-4866-b8c0-d0889766533a",
      "organization_id": "5f890b79-afa1-4ab7-b30a-5e7e4be5c091",
      "name": "PCYC Roma",
      "description": "Youth development programs including sports, recreation, education support, leadership development, and crime prevention. Programs for ages 5-25 including after-school care, holiday programs, fitness classes, and mentoring.",
      "categories": [
        "youth_development",
        "sports_recreation",
        "crime_prevention",
        "education_support"
      ],
      "keywords": [
        "pcyc",
        "sports",
        "recreation",
        "youth",
        "police",
        "community",
        "leadership"
      ],
      "minimum_age": 5,
      "maximum_age": 25,
      "youth_specific": true,
      "data_source": "pcyc_mega_expansion",
      "status": "active",
      "location": {
        "name": "PCYC Roma",
        "address": "71 McDowall Street, Roma QLD 4455",
        "city": "Queensland",
        "state": "QLD",
        "postcode": "4455",
        "region": "roma",
        "coordinates": null
      },
      "contact": {
        "phone": "(07) 4622 4355",
        "email": "roma@pcyc.org.au"
      }
    },
    {
      "id": "0a50f167-99c5-43c1-8ea9-5f7d475908ea",
      "organization_id": "5f890b79-afa1-4ab7-b30a-5e7e4be5c091",
      "name": "PCYC Thursday Island",
      "description": "Youth development programs including sports, recreation, education support, leadership development, and crime prevention. Programs for ages 5-25 including after-school care, holiday programs, fitness classes, and mentoring.",
      "categories": [
        "youth_development",
        "sports_recreation",
        "crime_prevention",
        "education_support"
      ],
      "keywords": [
        "pcyc",
        "sports",
        "recreation",
        "youth",
        "police",
        "community",
        "leadership"
      ],
      "minimum_age": 5,
      "maximum_age": 25,
      "youth_specific": true,
      "data_source": "pcyc_mega_expansion",
      "status": "active",
      "location": {
        "name": "PCYC Thursday Island",
        "address": "Milman Street, Thursday Island QLD 4875",
        "city": "Queensland",
        "state": "QLD",
        "postcode": "4875",
        "region": "torres_strait",
        "coordinates": null
      },
      "contact": {
        "phone": "(07) 4069 2100",
        "email": "thursdayisland@pcyc.org.au"
      }
    },
    {
      "id": "6e2ff50c-b35b-4053-974c-573ec8a2cfbb",
      "organization_id": "5f890b79-afa1-4ab7-b30a-5e7e4be5c091",
      "name": "PCYC Toowoomba",
      "description": "Youth development programs including sports, recreation, education support, leadership development, and crime prevention. Programs for ages 5-25 including after-school care, holiday programs, fitness classes, and mentoring.",
      "categories": [
        "youth_development",
        "sports_recreation",
        "crime_prevention",
        "education_support"
      ],
      "keywords": [
        "pcyc",
        "sports",
        "recreation",
        "youth",
        "police",
        "community",
        "leadership"
      ],
      "minimum_age": 5,
      "maximum_age": 25,
      "youth_specific": true,
      "data_source": "pcyc_mega_expansion",
      "status": "active",
      "location": {
        "name": "PCYC Toowoomba",
        "address": "81 Neil Street, Toowoomba QLD 4350",
        "city": "Toowoomba",
        "state": "QLD",
        "postcode": "4350",
        "region": "toowoomba",
        "coordinates": null
      },
      "contact": {
        "phone": "(07) 4631 4965",
        "email": "toowoomba@pcyc.org.au"
      }
    },
    {
      "id": "e5027170-2dd9-4637-884a-654fce84b7dc",
      "organization_id": "5f890b79-afa1-4ab7-b30a-5e7e4be5c091",
      "name": "PCYC Townsville",
      "description": "Youth development programs including sports, recreation, education support, leadership development, and crime prevention. Programs for ages 5-25 including after-school care, holiday programs, fitness classes, and mentoring.",
      "categories": [
        "youth_development",
        "sports_recreation",
        "crime_prevention",
        "education_support"
      ],
      "keywords": [
        "pcyc",
        "sports",
        "recreation",
        "youth",
        "police",
        "community",
        "leadership"
      ],
      "minimum_age": 5,
      "maximum_age": 25,
      "youth_specific": true,
      "data_source": "pcyc_mega_expansion",
      "status": "active",
      "location": {
        "name": "PCYC Townsville",
        "address": "201 Ingham Road, West End QLD 4810",
        "city": "Queensland",
        "state": "QLD",
        "postcode": "4810",
        "region": "townsville",
        "coordinates": null
      },
      "contact": {
        "phone": "(07) 4725 1300",
        "email": "townsville@pcyc.org.au"
      }
    },
    {
      "id": "839c7496-5ac7-4ea0-9fa6-c65c12a16f05",
      "organization_id": "5f890b79-afa1-4ab7-b30a-5e7e4be5c091",
      "name": "PCYC Warwick",
      "description": "Youth development programs including sports, recreation, education support, leadership development, and crime prevention. Programs for ages 5-25 including after-school care, holiday programs, fitness classes, and mentoring.",
      "categories": [
        "youth_development",
        "sports_recreation",
        "crime_prevention",
        "education_support"
      ],
      "keywords": [
        "pcyc",
        "sports",
        "recreation",
        "youth",
        "police",
        "community",
        "leadership"
      ],
      "minimum_age": 5,
      "maximum_age": 25,
      "youth_specific": true,
      "data_source": "pcyc_mega_expansion",
      "status": "active",
      "location": {
        "name": "PCYC Warwick",
        "address": "78 Palmerin Street, Warwick QLD 4370",
        "city": "Queensland",
        "state": "QLD",
        "postcode": "4370",
        "region": "southern_downs",
        "coordinates": null
      },
      "contact": {
        "phone": "(07) 4661 9700",
        "email": "warwick@pcyc.org.au"
      }
    },
    {
      "id": "9c17fa1f-2077-4b7e-b8b3-298962a51640",
      "organization_id": "5f890b79-afa1-4ab7-b30a-5e7e4be5c091",
      "name": "PCYC Weipa",
      "description": "Youth development programs including sports, recreation, education support, leadership development, and crime prevention. Programs for ages 5-25 including after-school care, holiday programs, fitness classes, and mentoring.",
      "categories": [
        "youth_development",
        "sports_recreation",
        "crime_prevention",
        "education_support"
      ],
      "keywords": [
        "pcyc",
        "sports",
        "recreation",
        "youth",
        "police",
        "community",
        "leadership"
      ],
      "minimum_age": 5,
      "maximum_age": 25,
      "youth_specific": true,
      "data_source": "pcyc_mega_expansion",
      "status": "active",
      "location": {
        "name": "PCYC Weipa",
        "address": "Western Avenue, Weipa QLD 4874",
        "city": "Queensland",
        "state": "QLD",
        "postcode": "4874",
        "region": "weipa",
        "coordinates": null
      },
      "contact": {
        "phone": "(07) 4069 7633",
        "email": "weipa@pcyc.org.au"
      }
    },
    {
      "id": "5492a8de-8353-41a4-9d1a-55c81fa7edbb",
      "organization_id": "568ac3e7-ca4b-4c75-a4aa-e031e2eb7007",
      "name": "Brisbane Youth Services - Crisis Accommodation",
      "description": "Emergency and transitional housing for young people experiencing homelessness or family breakdown.",
      "categories": [
        "crisis_accommodation",
        "community_service"
      ],
      "keywords": [
        "community",
        "support",
        "youth",
        "crisis accommodation"
      ],
      "minimum_age": 12,
      "maximum_age": 25,
      "youth_specific": true,
      "data_source": "community_services_mega",
      "status": "active",
      "location": {
        "name": "Brisbane Youth Services",
        "address": "167 Ann Street, Brisbane QLD 4000",
        "city": "Brisbane",
        "state": "QLD",
        "postcode": "4000",
        "region": "brisbane",
        "coordinates": null
      },
      "contact": {
        "phone": "(07) 3407 7800",
        "email": "brisbane.youth.services@missionaustralia.org.au"
      }
    },
    {
      "id": "2719a0bf-34d9-43ae-9ef8-3d23403f188e",
      "organization_id": "568ac3e7-ca4b-4c75-a4aa-e031e2eb7007",
      "name": "Brisbane Youth Services - Family Support",
      "description": "Counseling and support services for families and young people to strengthen relationships and prevent family breakdown.",
      "categories": [
        "family_support",
        "community_service"
      ],
      "keywords": [
        "community",
        "support",
        "youth",
        "family support"
      ],
      "minimum_age": 12,
      "maximum_age": 25,
      "youth_specific": true,
      "data_source": "community_services_mega",
      "status": "active",
      "location": {
        "name": "Brisbane Youth Services",
        "address": "167 Ann Street, Brisbane QLD 4000",
        "city": "Brisbane",
        "state": "QLD",
        "postcode": "4000",
        "region": "brisbane",
        "coordinates": null
      },
      "contact": {
        "phone": "(07) 3407 7800",
        "email": "brisbane.youth.services@missionaustralia.org.au"
      }
    },
    {
      "id": "41266ba6-4b04-43a3-85c2-33808eeb04ce",
      "organization_id": "568ac3e7-ca4b-4c75-a4aa-e031e2eb7007",
      "name": "Brisbane Youth Services - Employment Training",
      "description": "Job readiness training, work experience programs, and employment placement assistance for young people.",
      "categories": [
        "employment_training",
        "community_service"
      ],
      "keywords": [
        "community",
        "support",
        "youth",
        "employment training"
      ],
      "minimum_age": 12,
      "maximum_age": 25,
      "youth_specific": true,
      "data_source": "community_services_mega",
      "status": "active",
      "location": {
        "name": "Brisbane Youth Services",
        "address": "167 Ann Street, Brisbane QLD 4000",
        "city": "Brisbane",
        "state": "QLD",
        "postcode": "4000",
        "region": "brisbane",
        "coordinates": null
      },
      "contact": {
        "phone": "(07) 3407 7800",
        "email": "brisbane.youth.services@missionaustralia.org.au"
      }
    },
    {
      "id": "7fb0f3a4-c74d-4591-ab76-0b02875c7e6d",
      "organization_id": "568ac3e7-ca4b-4c75-a4aa-e031e2eb7007",
      "name": "Logan Youth Hub - Youth Mentoring",
      "description": "One-on-one mentoring programs connecting young people with positive adult role models.",
      "categories": [
        "youth_mentoring",
        "community_service"
      ],
      "keywords": [
        "community",
        "support",
        "youth",
        "youth mentoring"
      ],
      "minimum_age": 12,
      "maximum_age": 25,
      "youth_specific": true,
      "data_source": "community_services_mega",
      "status": "active",
      "location": {
        "name": "Logan Youth Hub",
        "address": "38 Wembley Road, Logan Central QLD 4114",
        "city": "Logan",
        "state": "QLD",
        "postcode": "4114",
        "region": "logan",
        "coordinates": null
      },
      "contact": {
        "phone": "(07) 3299 8200",
        "email": "logan.youth.hub@missionaustralia.org.au"
      }
    },
    {
      "id": "7a027cea-bed6-41f2-9ed2-f135522683a7",
      "organization_id": "568ac3e7-ca4b-4c75-a4aa-e031e2eb7007",
      "name": "Logan Youth Hub - Education Support",
      "description": "Academic support, tutoring, and alternative education pathways for young people.",
      "categories": [
        "education_support",
        "community_service"
      ],
      "keywords": [
        "community",
        "support",
        "youth",
        "education support"
      ],
      "minimum_age": 12,
      "maximum_age": 25,
      "youth_specific": true,
      "data_source": "community_services_mega",
      "status": "active",
      "location": {
        "name": "Logan Youth Hub",
        "address": "38 Wembley Road, Logan Central QLD 4114",
        "city": "Logan",
        "state": "QLD",
        "postcode": "4114",
        "region": "logan",
        "coordinates": null
      },
      "contact": {
        "phone": "(07) 3299 8200",
        "email": "logan.youth.hub@missionaustralia.org.au"
      }
    },
    {
      "id": "f151e87a-2bde-488f-a70a-d0abd8228c3f",
      "organization_id": "568ac3e7-ca4b-4c75-a4aa-e031e2eb7007",
      "name": "Gold Coast Family Services - Family Support",
      "description": "Counseling and support services for families and young people to strengthen relationships and prevent family breakdown.",
      "categories": [
        "family_support",
        "community_service"
      ],
      "keywords": [
        "community",
        "support",
        "youth",
        "family support"
      ],
      "minimum_age": 12,
      "maximum_age": 25,
      "youth_specific": true,
      "data_source": "community_services_mega",
      "status": "active",
      "location": {
        "name": "Gold Coast Family Services",
        "address": "46 Scarborough Street, Southport QLD 4215",
        "city": "Queensland",
        "state": "QLD",
        "postcode": "4215",
        "region": "gold_coast",
        "coordinates": null
      },
      "contact": {
        "phone": "(07) 5561 4950",
        "email": "gold.coast.family.services@missionaustralia.org.au"
      }
    },
    {
      "id": "f2e83a35-7334-48e6-80a2-5255f1c8b2f1",
      "organization_id": "568ac3e7-ca4b-4c75-a4aa-e031e2eb7007",
      "name": "Gold Coast Family Services - Domestic Violence",
      "description": "Support services for young people affected by domestic and family violence.",
      "categories": [
        "domestic_violence",
        "community_service"
      ],
      "keywords": [
        "community",
        "support",
        "youth",
        "domestic violence"
      ],
      "minimum_age": 12,
      "maximum_age": 25,
      "youth_specific": true,
      "data_source": "community_services_mega",
      "status": "active",
      "location": {
        "name": "Gold Coast Family Services",
        "address": "46 Scarborough Street, Southport QLD 4215",
        "city": "Queensland",
        "state": "QLD",
        "postcode": "4215",
        "region": "gold_coast",
        "coordinates": null
      },
      "contact": {
        "phone": "(07) 5561 4950",
        "email": "gold.coast.family.services@missionaustralia.org.au"
      }
    },
    {
      "id": "9ea044f8-d646-49d0-a48e-282f29ca7590",
      "organization_id": "568ac3e7-ca4b-4c75-a4aa-e031e2eb7007",
      "name": "Townsville Community Services - Housing Support",
      "description": "Assistance with finding and maintaining stable housing for young people.",
      "categories": [
        "housing_support",
        "community_service"
      ],
      "keywords": [
        "community",
        "support",
        "youth",
        "housing support"
      ],
      "minimum_age": 12,
      "maximum_age": 25,
      "youth_specific": true,
      "data_source": "community_services_mega",
      "status": "active",
      "location": {
        "name": "Townsville Community Services",
        "address": "142 Walker Street, Townsville QLD 4810",
        "city": "Townsville",
        "state": "QLD",
        "postcode": "4810",
        "region": "townsville",
        "coordinates": null
      },
      "contact": {
        "phone": "(07) 4724 5200",
        "email": "townsville.community.services@missionaustralia.org.au"
      }
    },
    {
      "id": "afbe2b65-ef18-4e74-8d7b-af5877658c29",
      "organization_id": "568ac3e7-ca4b-4c75-a4aa-e031e2eb7007",
      "name": "Townsville Community Services - Youth Programs",
      "description": "Recreational, educational, and developmental programs designed specifically for young people.",
      "categories": [
        "youth_programs",
        "community_service"
      ],
      "keywords": [
        "community",
        "support",
        "youth",
        "youth programs"
      ],
      "minimum_age": 12,
      "maximum_age": 25,
      "youth_specific": true,
      "data_source": "community_services_mega",
      "status": "active",
      "location": {
        "name": "Townsville Community Services",
        "address": "142 Walker Street, Townsville QLD 4810",
        "city": "Townsville",
        "state": "QLD",
        "postcode": "4810",
        "region": "townsville",
        "coordinates": null
      },
      "contact": {
        "phone": "(07) 4724 5200",
        "email": "townsville.community.services@missionaustralia.org.au"
      }
    },
    {
      "id": "740a910d-6e05-47e9-8bd7-2cfbba26250d",
      "organization_id": "568ac3e7-ca4b-4c75-a4aa-e031e2eb7007",
      "name": "Cairns Youth Support - Crisis Support",
      "description": "24/7 crisis intervention and support services for young people in immediate need.",
      "categories": [
        "crisis_support",
        "community_service"
      ],
      "keywords": [
        "community",
        "support",
        "youth",
        "crisis support"
      ],
      "minimum_age": 12,
      "maximum_age": 25,
      "youth_specific": true,
      "data_source": "community_services_mega",
      "status": "active",
      "location": {
        "name": "Cairns Youth Support",
        "address": "58 Abbott Street, Cairns QLD 4870",
        "city": "Cairns",
        "state": "QLD",
        "postcode": "4870",
        "region": "cairns",
        "coordinates": null
      },
      "contact": {
        "phone": "(07) 4031 2400",
        "email": "cairns.youth.support@missionaustralia.org.au"
      }
    },
    {
      "id": "b459c0aa-f070-48e7-9a9a-0af45b1a4ab2",
      "organization_id": "568ac3e7-ca4b-4c75-a4aa-e031e2eb7007",
      "name": "Cairns Youth Support - Employment Training",
      "description": "Job readiness training, work experience programs, and employment placement assistance for young people.",
      "categories": [
        "employment_training",
        "community_service"
      ],
      "keywords": [
        "community",
        "support",
        "youth",
        "employment training"
      ],
      "minimum_age": 12,
      "maximum_age": 25,
      "youth_specific": true,
      "data_source": "community_services_mega",
      "status": "active",
      "location": {
        "name": "Cairns Youth Support",
        "address": "58 Abbott Street, Cairns QLD 4870",
        "city": "Cairns",
        "state": "QLD",
        "postcode": "4870",
        "region": "cairns",
        "coordinates": null
      },
      "contact": {
        "phone": "(07) 4031 2400",
        "email": "cairns.youth.support@missionaustralia.org.au"
      }
    },
    {
      "id": "1b2373cb-ba72-467e-8a2b-7b294879e367",
      "organization_id": "c65d1992-c2f1-4ec2-94f4-2ed005f8a720",
      "name": "Brisbane Youth Services - Crisis Accommodation",
      "description": "Emergency and transitional housing for young people experiencing homelessness or family breakdown.",
      "categories": [
        "crisis_accommodation",
        "community_service"
      ],
      "keywords": [
        "community",
        "support",
        "youth",
        "crisis accommodation"
      ],
      "minimum_age": 12,
      "maximum_age": 25,
      "youth_specific": true,
      "data_source": "community_services_mega",
      "status": "active",
      "location": {
        "name": "Brisbane Youth Services",
        "address": "69 Ann Street, Brisbane QLD 4000",
        "city": "Brisbane",
        "state": "QLD",
        "postcode": "4000",
        "region": "brisbane",
        "coordinates": null
      },
      "contact": {
        "phone": "(07) 3222 6400",
        "email": "brisbane.youth.services@thesalvationarmy.org.au"
      }
    },
    {
      "id": "c1966454-7799-44dd-b786-1b013171a5d9",
      "organization_id": "c65d1992-c2f1-4ec2-94f4-2ed005f8a720",
      "name": "Brisbane Youth Services - Family Support",
      "description": "Counseling and support services for families and young people to strengthen relationships and prevent family breakdown.",
      "categories": [
        "family_support",
        "community_service"
      ],
      "keywords": [
        "community",
        "support",
        "youth",
        "family support"
      ],
      "minimum_age": 12,
      "maximum_age": 25,
      "youth_specific": true,
      "data_source": "community_services_mega",
      "status": "active",
      "location": {
        "name": "Brisbane Youth Services",
        "address": "69 Ann Street, Brisbane QLD 4000",
        "city": "Brisbane",
        "state": "QLD",
        "postcode": "4000",
        "region": "brisbane",
        "coordinates": null
      },
      "contact": {
        "phone": "(07) 3222 6400",
        "email": "brisbane.youth.services@thesalvationarmy.org.au"
      }
    },
    {
      "id": "1ffdd815-4856-4105-af1b-66228be18add",
      "organization_id": "c65d1992-c2f1-4ec2-94f4-2ed005f8a720",
      "name": "Ipswich Family Store - Financial Assistance",
      "description": "Emergency financial relief and budgeting support for young people and families.",
      "categories": [
        "financial_assistance",
        "community_service"
      ],
      "keywords": [
        "community",
        "support",
        "youth",
        "financial assistance"
      ],
      "minimum_age": 12,
      "maximum_age": 25,
      "youth_specific": true,
      "data_source": "community_services_mega",
      "status": "active",
      "location": {
        "name": "Ipswich Family Store",
        "address": "117 Brisbane Street, Ipswich QLD 4305",
        "city": "Brisbane",
        "state": "QLD",
        "postcode": "4305",
        "region": "ipswich",
        "coordinates": null
      },
      "contact": {
        "phone": "(07) 3281 4044",
        "email": "ipswich.family.store@thesalvationarmy.org.au"
      }
    },
    {
      "id": "fae4125a-2641-4915-b3dd-8a29bc12b47f",
      "organization_id": "c65d1992-c2f1-4ec2-94f4-2ed005f8a720",
      "name": "Ipswich Family Store - Material Aid",
      "description": "Provision of essential items like food, clothing, and household goods.",
      "categories": [
        "material_aid",
        "community_service"
      ],
      "keywords": [
        "community",
        "support",
        "youth",
        "material aid"
      ],
      "minimum_age": 12,
      "maximum_age": 25,
      "youth_specific": true,
      "data_source": "community_services_mega",
      "status": "active",
      "location": {
        "name": "Ipswich Family Store",
        "address": "117 Brisbane Street, Ipswich QLD 4305",
        "city": "Brisbane",
        "state": "QLD",
        "postcode": "4305",
        "region": "ipswich",
        "coordinates": null
      },
      "contact": {
        "phone": "(07) 3281 4044",
        "email": "ipswich.family.store@thesalvationarmy.org.au"
      }
    },
    {
      "id": "ac017594-fab5-44d1-89b9-c38e5a531184",
      "organization_id": "c65d1992-c2f1-4ec2-94f4-2ed005f8a720",
      "name": "Gold Coast Centre - Emergency Relief",
      "description": "Immediate assistance with basic needs including food, accommodation, and essential services.",
      "categories": [
        "emergency_relief",
        "community_service"
      ],
      "keywords": [
        "community",
        "support",
        "youth",
        "emergency relief"
      ],
      "minimum_age": 12,
      "maximum_age": 25,
      "youth_specific": true,
      "data_source": "community_services_mega",
      "status": "active",
      "location": {
        "name": "Gold Coast Centre",
        "address": "32 Beryl Street, Southport QLD 4215",
        "city": "Queensland",
        "state": "QLD",
        "postcode": "4215",
        "region": "gold_coast",
        "coordinates": null
      },
      "contact": {
        "phone": "(07) 5591 3200",
        "email": "gold.coast.centre@thesalvationarmy.org.au"
      }
    },
    {
      "id": "37ff9082-1a6d-412f-b0df-00f0f50fdb92",
      "organization_id": "c65d1992-c2f1-4ec2-94f4-2ed005f8a720",
      "name": "Gold Coast Centre - Youth Programs",
      "description": "Recreational, educational, and developmental programs designed specifically for young people.",
      "categories": [
        "youth_programs",
        "community_service"
      ],
      "keywords": [
        "community",
        "support",
        "youth",
        "youth programs"
      ],
      "minimum_age": 12,
      "maximum_age": 25,
      "youth_specific": true,
      "data_source": "community_services_mega",
      "status": "active",
      "location": {
        "name": "Gold Coast Centre",
        "address": "32 Beryl Street, Southport QLD 4215",
        "city": "Queensland",
        "state": "QLD",
        "postcode": "4215",
        "region": "gold_coast",
        "coordinates": null
      },
      "contact": {
        "phone": "(07) 5591 3200",
        "email": "gold.coast.centre@thesalvationarmy.org.au"
      }
    },
    {
      "id": "9a856be2-4ee8-4f18-8534-b09391c053e7",
      "organization_id": "c65d1992-c2f1-4ec2-94f4-2ed005f8a720",
      "name": "Toowoomba Corps - Community Support",
      "description": "General community support services including advocacy, information, and referral services.",
      "categories": [
        "community_support",
        "community_service"
      ],
      "keywords": [
        "community",
        "support",
        "youth",
        "community support"
      ],
      "minimum_age": 12,
      "maximum_age": 25,
      "youth_specific": true,
      "data_source": "community_services_mega",
      "status": "active",
      "location": {
        "name": "Toowoomba Corps",
        "address": "154 Hume Street, Toowoomba QLD 4350",
        "city": "Toowoomba",
        "state": "QLD",
        "postcode": "4350",
        "region": "toowoomba",
        "coordinates": null
      },
      "contact": {
        "phone": "(07) 4634 4122",
        "email": "toowoomba.corps@thesalvationarmy.org.au"
      }
    },
    {
      "id": "0b7a69b1-0cc9-4cc6-9d89-0b8c76fd0e3d",
      "organization_id": "c65d1992-c2f1-4ec2-94f4-2ed005f8a720",
      "name": "Toowoomba Corps - Youth Activities",
      "description": "Recreational and social activities designed to engage young people in positive community activities.",
      "categories": [
        "youth_activities",
        "community_service"
      ],
      "keywords": [
        "community",
        "support",
        "youth",
        "youth activities"
      ],
      "minimum_age": 12,
      "maximum_age": 25,
      "youth_specific": true,
      "data_source": "community_services_mega",
      "status": "active",
      "location": {
        "name": "Toowoomba Corps",
        "address": "154 Hume Street, Toowoomba QLD 4350",
        "city": "Toowoomba",
        "state": "QLD",
        "postcode": "4350",
        "region": "toowoomba",
        "coordinates": null
      },
      "contact": {
        "phone": "(07) 4634 4122",
        "email": "toowoomba.corps@thesalvationarmy.org.au"
      }
    },
    {
      "id": "7a641509-e607-4697-af9c-9bc32a7fe8f9",
      "organization_id": "c65d1992-c2f1-4ec2-94f4-2ed005f8a720",
      "name": "Rockhampton Centre - Crisis Support",
      "description": "24/7 crisis intervention and support services for young people in immediate need.",
      "categories": [
        "crisis_support",
        "community_service"
      ],
      "keywords": [
        "community",
        "support",
        "youth",
        "crisis support"
      ],
      "minimum_age": 12,
      "maximum_age": 25,
      "youth_specific": true,
      "data_source": "community_services_mega",
      "status": "active",
      "location": {
        "name": "Rockhampton Centre",
        "address": "139 William Street, Rockhampton QLD 4700",
        "city": "Rockhampton",
        "state": "QLD",
        "postcode": "4700",
        "region": "rockhampton",
        "coordinates": null
      },
      "contact": {
        "phone": "(07) 4927 6464",
        "email": "rockhampton.centre@thesalvationarmy.org.au"
      }
    },
    {
      "id": "31025039-7195-467d-94a8-34fcf7c36583",
      "organization_id": "c65d1992-c2f1-4ec2-94f4-2ed005f8a720",
      "name": "Rockhampton Centre - Family Assistance",
      "description": "Practical and emotional support for families experiencing difficulties.",
      "categories": [
        "family_assistance",
        "community_service"
      ],
      "keywords": [
        "community",
        "support",
        "youth",
        "family assistance"
      ],
      "minimum_age": 12,
      "maximum_age": 25,
      "youth_specific": true,
      "data_source": "community_services_mega",
      "status": "active",
      "location": {
        "name": "Rockhampton Centre",
        "address": "139 William Street, Rockhampton QLD 4700",
        "city": "Rockhampton",
        "state": "QLD",
        "postcode": "4700",
        "region": "rockhampton",
        "coordinates": null
      },
      "contact": {
        "phone": "(07) 4927 6464",
        "email": "rockhampton.centre@thesalvationarmy.org.au"
      }
    },
    {
      "id": "85e03110-1aca-4752-8c60-045c4db10ea7",
      "organization_id": "c65d1992-c2f1-4ec2-94f4-2ed005f8a720",
      "name": "Mackay Family Store - Emergency Relief",
      "description": "Immediate assistance with basic needs including food, accommodation, and essential services.",
      "categories": [
        "emergency_relief",
        "community_service"
      ],
      "keywords": [
        "community",
        "support",
        "youth",
        "emergency relief"
      ],
      "minimum_age": 12,
      "maximum_age": 25,
      "youth_specific": true,
      "data_source": "community_services_mega",
      "status": "active",
      "location": {
        "name": "Mackay Family Store",
        "address": "34 Brisbane Street, Mackay QLD 4740",
        "city": "Brisbane",
        "state": "QLD",
        "postcode": "4740",
        "region": "mackay",
        "coordinates": null
      },
      "contact": {
        "phone": "(07) 4951 3200",
        "email": "mackay.family.store@thesalvationarmy.org.au"
      }
    },
    {
      "id": "9e027ef8-ab81-4696-b17e-af8cb82f87ca",
      "organization_id": "c65d1992-c2f1-4ec2-94f4-2ed005f8a720",
      "name": "Mackay Family Store - Youth Support",
      "description": "Comprehensive support services addressing the diverse needs of young people.",
      "categories": [
        "youth_support",
        "community_service"
      ],
      "keywords": [
        "community",
        "support",
        "youth",
        "youth support"
      ],
      "minimum_age": 12,
      "maximum_age": 25,
      "youth_specific": true,
      "data_source": "community_services_mega",
      "status": "active",
      "location": {
        "name": "Mackay Family Store",
        "address": "34 Brisbane Street, Mackay QLD 4740",
        "city": "Brisbane",
        "state": "QLD",
        "postcode": "4740",
        "region": "mackay",
        "coordinates": null
      },
      "contact": {
        "phone": "(07) 4951 3200",
        "email": "mackay.family.store@thesalvationarmy.org.au"
      }
    },
    {
      "id": "38bd42b0-54f1-4007-93f5-795de08c8047",
      "organization_id": "c65d1992-c2f1-4ec2-94f4-2ed005f8a720",
      "name": "Bundaberg Corps - Community Programs",
      "description": "Community-based programs designed to strengthen communities and support vulnerable members.",
      "categories": [
        "community_programs",
        "community_service"
      ],
      "keywords": [
        "community",
        "support",
        "youth",
        "community programs"
      ],
      "minimum_age": 12,
      "maximum_age": 25,
      "youth_specific": true,
      "data_source": "community_services_mega",
      "status": "active",
      "location": {
        "name": "Bundaberg Corps",
        "address": "73 Bourbong Street, Bundaberg QLD 4670",
        "city": "Bundaberg",
        "state": "QLD",
        "postcode": "4670",
        "region": "bundaberg",
        "coordinates": null
      },
      "contact": {
        "phone": "(07) 4153 1400",
        "email": "bundaberg.corps@thesalvationarmy.org.au"
      }
    },
    {
      "id": "e5577b14-6135-4645-8929-adade5f63429",
      "organization_id": "c65d1992-c2f1-4ec2-94f4-2ed005f8a720",
      "name": "Bundaberg Corps - Youth Development",
      "description": "Programs focused on building life skills, leadership, and personal development in young people.",
      "categories": [
        "youth_development",
        "community_service"
      ],
      "keywords": [
        "community",
        "support",
        "youth",
        "youth development"
      ],
      "minimum_age": 12,
      "maximum_age": 25,
      "youth_specific": true,
      "data_source": "community_services_mega",
      "status": "active",
      "location": {
        "name": "Bundaberg Corps",
        "address": "73 Bourbong Street, Bundaberg QLD 4670",
        "city": "Bundaberg",
        "state": "QLD",
        "postcode": "4670",
        "region": "bundaberg",
        "coordinates": null
      },
      "contact": {
        "phone": "(07) 4153 1400",
        "email": "bundaberg.corps@thesalvationarmy.org.au"
      }
    },
    {
      "id": "17d0111b-4cd2-4073-988b-665c06abf8aa",
      "organization_id": "b3627783-4f99-4005-8a27-8bc46b6ab129",
      "name": "Brisbane Children Services - Child Protection",
      "description": "Community support services for young people and families.",
      "categories": [
        "child_protection",
        "community_service"
      ],
      "keywords": [
        "community",
        "support",
        "youth",
        "child protection"
      ],
      "minimum_age": 12,
      "maximum_age": 25,
      "youth_specific": true,
      "data_source": "community_services_mega",
      "status": "active",
      "location": {
        "name": "Brisbane Children Services",
        "address": "25 Elizabeth Street, Brisbane QLD 4000",
        "city": "Brisbane",
        "state": "QLD",
        "postcode": "4000",
        "region": "brisbane",
        "coordinates": null
      },
      "contact": {
        "phone": "(07) 3253 4000",
        "email": "brisbane.children.services@unitingcarequeensland.org.au"
      }
    },
    {
      "id": "31ab7a98-d44e-44ed-a704-3ac884099e21",
      "organization_id": "b3627783-4f99-4005-8a27-8bc46b6ab129",
      "name": "Brisbane Children Services - Family Support",
      "description": "Counseling and support services for families and young people to strengthen relationships and prevent family breakdown.",
      "categories": [
        "family_support",
        "community_service"
      ],
      "keywords": [
        "community",
        "support",
        "youth",
        "family support"
      ],
      "minimum_age": 12,
      "maximum_age": 25,
      "youth_specific": true,
      "data_source": "community_services_mega",
      "status": "active",
      "location": {
        "name": "Brisbane Children Services",
        "address": "25 Elizabeth Street, Brisbane QLD 4000",
        "city": "Brisbane",
        "state": "QLD",
        "postcode": "4000",
        "region": "brisbane",
        "coordinates": null
      },
      "contact": {
        "phone": "(07) 3253 4000",
        "email": "brisbane.children.services@unitingcarequeensland.org.au"
      }
    },
    {
      "id": "bf3494c3-909e-4270-b4f1-e78ed1066012",
      "organization_id": "b3627783-4f99-4005-8a27-8bc46b6ab129",
      "name": "Logan Family Services - Family Counseling",
      "description": "Community support services for young people and families.",
      "categories": [
        "family_counseling",
        "community_service"
      ],
      "keywords": [
        "community",
        "support",
        "youth",
        "family counseling"
      ],
      "minimum_age": 12,
      "maximum_age": 25,
      "youth_specific": true,
      "data_source": "community_services_mega",
      "status": "active",
      "location": {
        "name": "Logan Family Services",
        "address": "150 Wembley Road, Logan Central QLD 4114",
        "city": "Logan",
        "state": "QLD",
        "postcode": "4114",
        "region": "logan",
        "coordinates": null
      },
      "contact": {
        "phone": "(07) 3299 1500",
        "email": "logan.family.services@unitingcarequeensland.org.au"
      }
    },
    {
      "id": "d17b38f9-6636-4b37-a6ce-e30e9e8dfc60",
      "organization_id": "b3627783-4f99-4005-8a27-8bc46b6ab129",
      "name": "Logan Family Services - Youth Programs",
      "description": "Recreational, educational, and developmental programs designed specifically for young people.",
      "categories": [
        "youth_programs",
        "community_service"
      ],
      "keywords": [
        "community",
        "support",
        "youth",
        "youth programs"
      ],
      "minimum_age": 12,
      "maximum_age": 25,
      "youth_specific": true,
      "data_source": "community_services_mega",
      "status": "active",
      "location": {
        "name": "Logan Family Services",
        "address": "150 Wembley Road, Logan Central QLD 4114",
        "city": "Logan",
        "state": "QLD",
        "postcode": "4114",
        "region": "logan",
        "coordinates": null
      },
      "contact": {
        "phone": "(07) 3299 1500",
        "email": "logan.family.services@unitingcarequeensland.org.au"
      }
    },
    {
      "id": "0e9117e3-d217-4bb4-899c-fa56c2c36103",
      "organization_id": "b3627783-4f99-4005-8a27-8bc46b6ab129",
      "name": "Gold Coast Community Care - Aged Care",
      "description": "Community support services for young people and families.",
      "categories": [
        "aged_care",
        "community_service"
      ],
      "keywords": [
        "community",
        "support",
        "youth",
        "aged care"
      ],
      "minimum_age": 12,
      "maximum_age": 25,
      "youth_specific": true,
      "data_source": "community_services_mega",
      "status": "active",
      "location": {
        "name": "Gold Coast Community Care",
        "address": "1681 Gold Coast Highway, Burleigh Heads QLD 4220",
        "city": "Gold Coast",
        "state": "QLD",
        "postcode": "4220",
        "region": "gold_coast",
        "coordinates": null
      },
      "contact": {
        "phone": "(07) 5535 1300",
        "email": "gold.coast.community.care@unitingcarequeensland.org.au"
      }
    },
    {
      "id": "1893ed20-6b5c-431b-bec9-cf6ea62faa25",
      "organization_id": "b3627783-4f99-4005-8a27-8bc46b6ab129",
      "name": "Gold Coast Community Care - Disability Support",
      "description": "Community support services for young people and families.",
      "categories": [
        "disability_support",
        "community_service"
      ],
      "keywords": [
        "community",
        "support",
        "youth",
        "disability support"
      ],
      "minimum_age": 12,
      "maximum_age": 25,
      "youth_specific": true,
      "data_source": "community_services_mega",
      "status": "active",
      "location": {
        "name": "Gold Coast Community Care",
        "address": "1681 Gold Coast Highway, Burleigh Heads QLD 4220",
        "city": "Gold Coast",
        "state": "QLD",
        "postcode": "4220",
        "region": "gold_coast",
        "coordinates": null
      },
      "contact": {
        "phone": "(07) 5535 1300",
        "email": "gold.coast.community.care@unitingcarequeensland.org.au"
      }
    },
    {
      "id": "34537c26-1f82-44d2-9ff8-6fc06ec3c491",
      "organization_id": "b3627783-4f99-4005-8a27-8bc46b6ab129",
      "name": "Sunshine Coast Services - Community Services",
      "description": "Community support services for young people and families.",
      "categories": [
        "community_services",
        "community_service"
      ],
      "keywords": [
        "community",
        "support",
        "youth",
        "community services"
      ],
      "minimum_age": 12,
      "maximum_age": 25,
      "youth_specific": true,
      "data_source": "community_services_mega",
      "status": "active",
      "location": {
        "name": "Sunshine Coast Services",
        "address": "31 Aerodrome Road, Maroochydore QLD 4558",
        "city": "Queensland",
        "state": "QLD",
        "postcode": "4558",
        "region": "sunshine_coast",
        "coordinates": null
      },
      "contact": {
        "phone": "(07) 5479 2200",
        "email": "sunshine.coast.services@unitingcarequeensland.org.au"
      }
    },
    {
      "id": "80a7b9f3-0f58-469c-8bcd-1b89f9a0a20e",
      "organization_id": "b3627783-4f99-4005-8a27-8bc46b6ab129",
      "name": "Sunshine Coast Services - Family Support",
      "description": "Counseling and support services for families and young people to strengthen relationships and prevent family breakdown.",
      "categories": [
        "family_support",
        "community_service"
      ],
      "keywords": [
        "community",
        "support",
        "youth",
        "family support"
      ],
      "minimum_age": 12,
      "maximum_age": 25,
      "youth_specific": true,
      "data_source": "community_services_mega",
      "status": "active",
      "location": {
        "name": "Sunshine Coast Services",
        "address": "31 Aerodrome Road, Maroochydore QLD 4558",
        "city": "Queensland",
        "state": "QLD",
        "postcode": "4558",
        "region": "sunshine_coast",
        "coordinates": null
      },
      "contact": {
        "phone": "(07) 5479 2200",
        "email": "sunshine.coast.services@unitingcarequeensland.org.au"
      }
    },
    {
      "id": "e7a73dff-98b4-401f-8535-25717664d4a4",
      "organization_id": "b3627783-4f99-4005-8a27-8bc46b6ab129",
      "name": "Townsville Family Centre - Parenting Programs",
      "description": "Community support services for young people and families.",
      "categories": [
        "parenting_programs",
        "community_service"
      ],
      "keywords": [
        "community",
        "support",
        "youth",
        "parenting programs"
      ],
      "minimum_age": 12,
      "maximum_age": 25,
      "youth_specific": true,
      "data_source": "community_services_mega",
      "status": "active",
      "location": {
        "name": "Townsville Family Centre",
        "address": "18 Blackwood Street, Townsville QLD 4810",
        "city": "Townsville",
        "state": "QLD",
        "postcode": "4810",
        "region": "townsville",
        "coordinates": null
      },
      "contact": {
        "phone": "(07) 4724 1800",
        "email": "townsville.family.centre@unitingcarequeensland.org.au"
      }
    },
    {
      "id": "80dcd060-18d1-4e0d-bc66-2a864d3f80f7",
      "organization_id": "b3627783-4f99-4005-8a27-8bc46b6ab129",
      "name": "Townsville Family Centre - Youth Support",
      "description": "Comprehensive support services addressing the diverse needs of young people.",
      "categories": [
        "youth_support",
        "community_service"
      ],
      "keywords": [
        "community",
        "support",
        "youth",
        "youth support"
      ],
      "minimum_age": 12,
      "maximum_age": 25,
      "youth_specific": true,
      "data_source": "community_services_mega",
      "status": "active",
      "location": {
        "name": "Townsville Family Centre",
        "address": "18 Blackwood Street, Townsville QLD 4810",
        "city": "Townsville",
        "state": "QLD",
        "postcode": "4810",
        "region": "townsville",
        "coordinates": null
      },
      "contact": {
        "phone": "(07) 4724 1800",
        "email": "townsville.family.centre@unitingcarequeensland.org.au"
      }
    },
    {
      "id": "9130b174-6722-4d86-acc9-c116c9231ee2",
      "organization_id": "ce5537ab-5460-4f41-8c93-d5777c2690d7",
      "name": "Brisbane Family Services - Family Support",
      "description": "Counseling and support services for families and young people to strengthen relationships and prevent family breakdown.",
      "categories": [
        "family_support",
        "community_service"
      ],
      "keywords": [
        "community",
        "support",
        "youth",
        "family support"
      ],
      "minimum_age": 12,
      "maximum_age": 25,
      "youth_specific": true,
      "data_source": "community_services_mega",
      "status": "active",
      "location": {
        "name": "Brisbane Family Services",
        "address": "417 Ann Street, Brisbane QLD 4000",
        "city": "Brisbane",
        "state": "QLD",
        "postcode": "4000",
        "region": "brisbane",
        "coordinates": null
      },
      "contact": {
        "phone": "(07) 3831 5000",
        "email": "brisbane.family.services@anglicaresouthernqueensland.org.au"
      }
    },
    {
      "id": "6bf32f46-8d20-4ef0-9492-e0133fa08ecb",
      "organization_id": "ce5537ab-5460-4f41-8c93-d5777c2690d7",
      "name": "Brisbane Family Services - Emergency Relief",
      "description": "Immediate assistance with basic needs including food, accommodation, and essential services.",
      "categories": [
        "emergency_relief",
        "community_service"
      ],
      "keywords": [
        "community",
        "support",
        "youth",
        "emergency relief"
      ],
      "minimum_age": 12,
      "maximum_age": 25,
      "youth_specific": true,
      "data_source": "community_services_mega",
      "status": "active",
      "location": {
        "name": "Brisbane Family Services",
        "address": "417 Ann Street, Brisbane QLD 4000",
        "city": "Brisbane",
        "state": "QLD",
        "postcode": "4000",
        "region": "brisbane",
        "coordinates": null
      },
      "contact": {
        "phone": "(07) 3831 5000",
        "email": "brisbane.family.services@anglicaresouthernqueensland.org.au"
      }
    },
    {
      "id": "cb3ec4e5-2ff4-49fd-ba02-24d7dd72bd2b",
      "organization_id": "ce5537ab-5460-4f41-8c93-d5777c2690d7",
      "name": "Ipswich Community Services - Financial Counseling",
      "description": "Community support services for young people and families.",
      "categories": [
        "financial_counseling",
        "community_service"
      ],
      "keywords": [
        "community",
        "support",
        "youth",
        "financial counseling"
      ],
      "minimum_age": 12,
      "maximum_age": 25,
      "youth_specific": true,
      "data_source": "community_services_mega",
      "status": "active",
      "location": {
        "name": "Ipswich Community Services",
        "address": "8 Roderick Street, Ipswich QLD 4305",
        "city": "Ipswich",
        "state": "QLD",
        "postcode": "4305",
        "region": "ipswich",
        "coordinates": null
      },
      "contact": {
        "phone": "(07) 3282 4555",
        "email": "ipswich.community.services@anglicaresouthernqueensland.org.au"
      }
    },
    {
      "id": "263d4a19-9bab-4862-b349-7e0e45173283",
      "organization_id": "ce5537ab-5460-4f41-8c93-d5777c2690d7",
      "name": "Ipswich Community Services - Community Support",
      "description": "General community support services including advocacy, information, and referral services.",
      "categories": [
        "community_support",
        "community_service"
      ],
      "keywords": [
        "community",
        "support",
        "youth",
        "community support"
      ],
      "minimum_age": 12,
      "maximum_age": 25,
      "youth_specific": true,
      "data_source": "community_services_mega",
      "status": "active",
      "location": {
        "name": "Ipswich Community Services",
        "address": "8 Roderick Street, Ipswich QLD 4305",
        "city": "Ipswich",
        "state": "QLD",
        "postcode": "4305",
        "region": "ipswich",
        "coordinates": null
      },
      "contact": {
        "phone": "(07) 3282 4555",
        "email": "ipswich.community.services@anglicaresouthernqueensland.org.au"
      }
    },
    {
      "id": "e9293ee0-d4e6-424e-a23d-f3433aa8726a",
      "organization_id": "ce5537ab-5460-4f41-8c93-d5777c2690d7",
      "name": "Gold Coast Regional Office - Aged Care",
      "description": "Community support services for young people and families.",
      "categories": [
        "aged_care",
        "community_service"
      ],
      "keywords": [
        "community",
        "support",
        "youth",
        "aged care"
      ],
      "minimum_age": 12,
      "maximum_age": 25,
      "youth_specific": true,
      "data_source": "community_services_mega",
      "status": "active",
      "location": {
        "name": "Gold Coast Regional Office",
        "address": "7 Bay Street, Southport QLD 4215",
        "city": "Queensland",
        "state": "QLD",
        "postcode": "4215",
        "region": "gold_coast",
        "coordinates": null
      },
      "contact": {
        "phone": "(07) 5561 2777",
        "email": "gold.coast.regional.office@anglicaresouthernqueensland.org.au"
      }
    },
    {
      "id": "479dd8bd-6311-44ff-8def-44ac3affa214",
      "organization_id": "ce5537ab-5460-4f41-8c93-d5777c2690d7",
      "name": "Gold Coast Regional Office - Disability Services",
      "description": "Community support services for young people and families.",
      "categories": [
        "disability_services",
        "community_service"
      ],
      "keywords": [
        "community",
        "support",
        "youth",
        "disability services"
      ],
      "minimum_age": 12,
      "maximum_age": 25,
      "youth_specific": true,
      "data_source": "community_services_mega",
      "status": "active",
      "location": {
        "name": "Gold Coast Regional Office",
        "address": "7 Bay Street, Southport QLD 4215",
        "city": "Queensland",
        "state": "QLD",
        "postcode": "4215",
        "region": "gold_coast",
        "coordinates": null
      },
      "contact": {
        "phone": "(07) 5561 2777",
        "email": "gold.coast.regional.office@anglicaresouthernqueensland.org.au"
      }
    },
    {
      "id": "f12a3d2f-80a4-498a-84d5-7e0cb3d7bfda",
      "organization_id": "ce5537ab-5460-4f41-8c93-d5777c2690d7",
      "name": "Toowoomba Office - Community Programs",
      "description": "Community-based programs designed to strengthen communities and support vulnerable members.",
      "categories": [
        "community_programs",
        "community_service"
      ],
      "keywords": [
        "community",
        "support",
        "youth",
        "community programs"
      ],
      "minimum_age": 12,
      "maximum_age": 25,
      "youth_specific": true,
      "data_source": "community_services_mega",
      "status": "active",
      "location": {
        "name": "Toowoomba Office",
        "address": "216 Hume Street, Toowoomba QLD 4350",
        "city": "Toowoomba",
        "state": "QLD",
        "postcode": "4350",
        "region": "toowoomba",
        "coordinates": null
      },
      "contact": {
        "phone": "(07) 4634 8000",
        "email": "toowoomba.office@anglicaresouthernqueensland.org.au"
      }
    },
    {
      "id": "8852b2d2-9de4-44e0-9aae-5dd346f938b6",
      "organization_id": "ce5537ab-5460-4f41-8c93-d5777c2690d7",
      "name": "Toowoomba Office - Family Assistance",
      "description": "Practical and emotional support for families experiencing difficulties.",
      "categories": [
        "family_assistance",
        "community_service"
      ],
      "keywords": [
        "community",
        "support",
        "youth",
        "family assistance"
      ],
      "minimum_age": 12,
      "maximum_age": 25,
      "youth_specific": true,
      "data_source": "community_services_mega",
      "status": "active",
      "location": {
        "name": "Toowoomba Office",
        "address": "216 Hume Street, Toowoomba QLD 4350",
        "city": "Toowoomba",
        "state": "QLD",
        "postcode": "4350",
        "region": "toowoomba",
        "coordinates": null
      },
      "contact": {
        "phone": "(07) 4634 8000",
        "email": "toowoomba.office@anglicaresouthernqueensland.org.au"
      }
    },
    {
      "id": "949df045-fd24-4e00-9568-7003e7913517",
      "organization_id": "c316f1b5-30fc-4af0-8c53-69ee896af638",
      "name": "Brisbane Street Outreach - Street Outreach",
      "description": "Community support services for young people and families.",
      "categories": [
        "street_outreach",
        "community_service"
      ],
      "keywords": [
        "community",
        "support",
        "youth",
        "street outreach"
      ],
      "minimum_age": 12,
      "maximum_age": 25,
      "youth_specific": true,
      "data_source": "community_services_mega",
      "status": "active",
      "location": {
        "name": "Brisbane Street Outreach",
        "address": "167 Ann Street, Brisbane QLD 4000",
        "city": "Brisbane",
        "state": "QLD",
        "postcode": "4000",
        "region": "brisbane",
        "coordinates": null
      },
      "contact": {
        "phone": "(07) 3407 5500",
        "email": "brisbane.street.outreach@youthoffthestreets.org.au"
      }
    },
    {
      "id": "d1e7d605-15ef-4d22-be44-d2d7b4b94ead",
      "organization_id": "c316f1b5-30fc-4af0-8c53-69ee896af638",
      "name": "Brisbane Street Outreach - Crisis Accommodation",
      "description": "Emergency and transitional housing for young people experiencing homelessness or family breakdown.",
      "categories": [
        "crisis_accommodation",
        "community_service"
      ],
      "keywords": [
        "community",
        "support",
        "youth",
        "crisis accommodation"
      ],
      "minimum_age": 12,
      "maximum_age": 25,
      "youth_specific": true,
      "data_source": "community_services_mega",
      "status": "active",
      "location": {
        "name": "Brisbane Street Outreach",
        "address": "167 Ann Street, Brisbane QLD 4000",
        "city": "Brisbane",
        "state": "QLD",
        "postcode": "4000",
        "region": "brisbane",
        "coordinates": null
      },
      "contact": {
        "phone": "(07) 3407 5500",
        "email": "brisbane.street.outreach@youthoffthestreets.org.au"
      }
    },
    {
      "id": "fe03cf61-9b65-45d8-88c5-2463f21389f5",
      "organization_id": "c316f1b5-30fc-4af0-8c53-69ee896af638",
      "name": "Gold Coast Youth Program - Youth Mentoring",
      "description": "One-on-one mentoring programs connecting young people with positive adult role models.",
      "categories": [
        "youth_mentoring",
        "community_service"
      ],
      "keywords": [
        "community",
        "support",
        "youth",
        "youth mentoring"
      ],
      "minimum_age": 12,
      "maximum_age": 25,
      "youth_specific": true,
      "data_source": "community_services_mega",
      "status": "active",
      "location": {
        "name": "Gold Coast Youth Program",
        "address": "46 Scarborough Street, Southport QLD 4215",
        "city": "Queensland",
        "state": "QLD",
        "postcode": "4215",
        "region": "gold_coast",
        "coordinates": null
      },
      "contact": {
        "phone": "(07) 5561 8800",
        "email": "gold.coast.youth.program@youthoffthestreets.org.au"
      }
    },
    {
      "id": "2a92e193-6322-4753-ae1d-825134b6ae73",
      "organization_id": "c316f1b5-30fc-4af0-8c53-69ee896af638",
      "name": "Gold Coast Youth Program - Life Skills",
      "description": "Community support services for young people and families.",
      "categories": [
        "life_skills",
        "community_service"
      ],
      "keywords": [
        "community",
        "support",
        "youth",
        "life skills"
      ],
      "minimum_age": 12,
      "maximum_age": 25,
      "youth_specific": true,
      "data_source": "community_services_mega",
      "status": "active",
      "location": {
        "name": "Gold Coast Youth Program",
        "address": "46 Scarborough Street, Southport QLD 4215",
        "city": "Queensland",
        "state": "QLD",
        "postcode": "4215",
        "region": "gold_coast",
        "coordinates": null
      },
      "contact": {
        "phone": "(07) 5561 8800",
        "email": "gold.coast.youth.program@youthoffthestreets.org.au"
      }
    },
    {
      "id": "22aca5cc-a479-47fe-903f-8f4a3c3dc10e",
      "organization_id": "ab563697-c1de-482d-bdec-826bdfeb4d2a",
      "name": "Brisbane Student Support Services",
      "description": "Education support services for young people including alternative education pathways, vocational training, literacy and numeracy support, school re-engagement programs, and career guidance.",
      "categories": [
        "education_support",
        "training",
        "career_guidance"
      ],
      "keywords": [
        "education",
        "training",
        "school",
        "career",
        "learning",
        "skills"
      ],
      "minimum_age": 15,
      "maximum_age": 25,
      "youth_specific": true,
      "data_source": "education_support_mega",
      "status": "active",
      "location": {
        "name": "Brisbane Student Support Services",
        "address": "30 Mary Street, Brisbane QLD 4000",
        "city": "Brisbane",
        "state": "QLD",
        "postcode": "4000",
        "region": "brisbane",
        "coordinates": null
      },
      "contact": {
        "phone": "(07) 3513 5333",
        "email": "youth.support@queenslanddepartmentofeducation.qld.gov.au"
      }
    },
    {
      "id": "c5b6701b-04ff-4fdb-b41f-10046c03fe6e",
      "organization_id": "ab563697-c1de-482d-bdec-826bdfeb4d2a",
      "name": "Gold Coast Education Support",
      "description": "Education support services for young people including alternative education pathways, vocational training, literacy and numeracy support, school re-engagement programs, and career guidance.",
      "categories": [
        "education_support",
        "training",
        "career_guidance"
      ],
      "keywords": [
        "education",
        "training",
        "school",
        "career",
        "learning",
        "skills"
      ],
      "minimum_age": 15,
      "maximum_age": 25,
      "youth_specific": true,
      "data_source": "education_support_mega",
      "status": "active",
      "location": {
        "name": "Gold Coast Education Support",
        "address": "2 Scarborough Street, Southport QLD 4215",
        "city": "Queensland",
        "state": "QLD",
        "postcode": "4215",
        "region": "gold_coast",
        "coordinates": null
      },
      "contact": {
        "phone": "(07) 5552 7333",
        "email": "youth.support@queenslanddepartmentofeducation.qld.gov.au"
      }
    },
    {
      "id": "5c501d13-6cbe-4338-8e94-502c90dc1c9c",
      "organization_id": "ab563697-c1de-482d-bdec-826bdfeb4d2a",
      "name": "Sunshine Coast Student Services",
      "description": "Education support services for young people including alternative education pathways, vocational training, literacy and numeracy support, school re-engagement programs, and career guidance.",
      "categories": [
        "education_support",
        "training",
        "career_guidance"
      ],
      "keywords": [
        "education",
        "training",
        "school",
        "career",
        "learning",
        "skills"
      ],
      "minimum_age": 15,
      "maximum_age": 25,
      "youth_specific": true,
      "data_source": "education_support_mega",
      "status": "active",
      "location": {
        "name": "Sunshine Coast Student Services",
        "address": "31 Aerodrome Road, Maroochydore QLD 4558",
        "city": "Queensland",
        "state": "QLD",
        "postcode": "4558",
        "region": "sunshine_coast",
        "coordinates": null
      },
      "contact": {
        "phone": "(07) 5429 6333",
        "email": "youth.support@queenslanddepartmentofeducation.qld.gov.au"
      }
    },
    {
      "id": "7b7e6988-6a81-41a5-bc7a-40c70b2e6799",
      "organization_id": "ab563697-c1de-482d-bdec-826bdfeb4d2a",
      "name": "Townsville Education Support",
      "description": "Education support services for young people including alternative education pathways, vocational training, literacy and numeracy support, school re-engagement programs, and career guidance.",
      "categories": [
        "education_support",
        "training",
        "career_guidance"
      ],
      "keywords": [
        "education",
        "training",
        "school",
        "career",
        "learning",
        "skills"
      ],
      "minimum_age": 15,
      "maximum_age": 25,
      "youth_specific": true,
      "data_source": "education_support_mega",
      "status": "active",
      "location": {
        "name": "Townsville Education Support",
        "address": "77 Denham Street, Townsville QLD 4810",
        "city": "Townsville",
        "state": "QLD",
        "postcode": "4810",
        "region": "townsville",
        "coordinates": null
      },
      "contact": {
        "phone": "(07) 4759 4333",
        "email": "youth.support@queenslanddepartmentofeducation.qld.gov.au"
      }
    },
    {
      "id": "893bbb7c-f5f9-411a-9544-8ed28e3bd74a",
      "organization_id": "ab563697-c1de-482d-bdec-826bdfeb4d2a",
      "name": "Cairns Student Support",
      "description": "Education support services for young people including alternative education pathways, vocational training, literacy and numeracy support, school re-engagement programs, and career guidance.",
      "categories": [
        "education_support",
        "training",
        "career_guidance"
      ],
      "keywords": [
        "education",
        "training",
        "school",
        "career",
        "learning",
        "skills"
      ],
      "minimum_age": 15,
      "maximum_age": 25,
      "youth_specific": true,
      "data_source": "education_support_mega",
      "status": "active",
      "location": {
        "name": "Cairns Student Support",
        "address": "15 Lake Street, Cairns QLD 4870",
        "city": "Cairns",
        "state": "QLD",
        "postcode": "4870",
        "region": "cairns",
        "coordinates": null
      },
      "contact": {
        "phone": "(07) 4222 6333",
        "email": "youth.support@queenslanddepartmentofeducation.qld.gov.au"
      }
    },
    {
      "id": "b65e019b-3e10-47d7-b8a4-ee3d03963a0f",
      "organization_id": "f29e6b02-62d1-425f-8a89-2e8075da4ea7",
      "name": "Brisbane Youth Pathways",
      "description": "Education support services for young people including alternative education pathways, vocational training, literacy and numeracy support, school re-engagement programs, and career guidance.",
      "categories": [
        "education_support",
        "training",
        "career_guidance"
      ],
      "keywords": [
        "education",
        "training",
        "school",
        "career",
        "learning",
        "skills"
      ],
      "minimum_age": 15,
      "maximum_age": 25,
      "youth_specific": true,
      "data_source": "education_support_mega",
      "status": "active",
      "location": {
        "name": "Brisbane Youth Pathways",
        "address": "140 Ann Street, Brisbane QLD 4000",
        "city": "Brisbane",
        "state": "QLD",
        "postcode": "4000",
        "region": "brisbane",
        "coordinates": null
      },
      "contact": {
        "phone": "(07) 3244 8888",
        "email": "youth.support@tafequeensland.qld.gov.au"
      }
    },
    {
      "id": "e50cf3e7-372c-4a60-a022-641627a01721",
      "organization_id": "f29e6b02-62d1-425f-8a89-2e8075da4ea7",
      "name": "Gold Coast Youth Training",
      "description": "Education support services for young people including alternative education pathways, vocational training, literacy and numeracy support, school re-engagement programs, and career guidance.",
      "categories": [
        "education_support",
        "training",
        "career_guidance"
      ],
      "keywords": [
        "education",
        "training",
        "school",
        "career",
        "learning",
        "skills"
      ],
      "minimum_age": 15,
      "maximum_age": 25,
      "youth_specific": true,
      "data_source": "education_support_mega",
      "status": "active",
      "location": {
        "name": "Gold Coast Youth Training",
        "address": "132 Nerang Street, Southport QLD 4215",
        "city": "Queensland",
        "state": "QLD",
        "postcode": "4215",
        "region": "gold_coast",
        "coordinates": null
      },
      "contact": {
        "phone": "(07) 5581 8888",
        "email": "youth.support@tafequeensland.qld.gov.au"
      }
    },
    {
      "id": "a3a2690a-68be-4f90-ab23-e5330ff2a588",
      "organization_id": "f29e6b02-62d1-425f-8a89-2e8075da4ea7",
      "name": "Sunshine Coast Skills Centre",
      "description": "Education support services for young people including alternative education pathways, vocational training, literacy and numeracy support, school re-engagement programs, and career guidance.",
      "categories": [
        "education_support",
        "training",
        "career_guidance"
      ],
      "keywords": [
        "education",
        "training",
        "school",
        "career",
        "learning",
        "skills"
      ],
      "minimum_age": 15,
      "maximum_age": 25,
      "youth_specific": true,
      "data_source": "education_support_mega",
      "status": "active",
      "location": {
        "name": "Sunshine Coast Skills Centre",
        "address": "12 Wises Road, Maroochydore QLD 4558",
        "city": "Queensland",
        "state": "QLD",
        "postcode": "4558",
        "region": "sunshine_coast",
        "coordinates": null
      },
      "contact": {
        "phone": "(07) 5459 8888",
        "email": "youth.support@tafequeensland.qld.gov.au"
      }
    },
    {
      "id": "c80e8404-5d7f-40fa-b165-be2f4c9ec0e2",
      "organization_id": "f29e6b02-62d1-425f-8a89-2e8075da4ea7",
      "name": "Townsville Training Hub",
      "description": "Education support services for young people including alternative education pathways, vocational training, literacy and numeracy support, school re-engagement programs, and career guidance.",
      "categories": [
        "education_support",
        "training",
        "career_guidance"
      ],
      "keywords": [
        "education",
        "training",
        "school",
        "career",
        "learning",
        "skills"
      ],
      "minimum_age": 15,
      "maximum_age": 25,
      "youth_specific": true,
      "data_source": "education_support_mega",
      "status": "active",
      "location": {
        "name": "Townsville Training Hub",
        "address": "350 Boundary Street, Townsville QLD 4810",
        "city": "Townsville",
        "state": "QLD",
        "postcode": "4810",
        "region": "townsville",
        "coordinates": null
      },
      "contact": {
        "phone": "(07) 4725 8888",
        "email": "youth.support@tafequeensland.qld.gov.au"
      }
    },
    {
      "id": "3aa7e5ec-1816-4900-9af3-416ea41319d5",
      "organization_id": "f29e6b02-62d1-425f-8a89-2e8075da4ea7",
      "name": "Cairns Learning Centre",
      "description": "Education support services for young people including alternative education pathways, vocational training, literacy and numeracy support, school re-engagement programs, and career guidance.",
      "categories": [
        "education_support",
        "training",
        "career_guidance"
      ],
      "keywords": [
        "education",
        "training",
        "school",
        "career",
        "learning",
        "skills"
      ],
      "minimum_age": 15,
      "maximum_age": 25,
      "youth_specific": true,
      "data_source": "education_support_mega",
      "status": "active",
      "location": {
        "name": "Cairns Learning Centre",
        "address": "1 McLeod Street, Cairns QLD 4870",
        "city": "Cairns",
        "state": "QLD",
        "postcode": "4870",
        "region": "cairns",
        "coordinates": null
      },
      "contact": {
        "phone": "(07) 4042 8888",
        "email": "youth.support@tafequeensland.qld.gov.au"
      }
    },
    {
      "id": "9495a474-15ac-4f01-a71a-aaa44bee3945",
      "organization_id": "9543c899-bed2-4430-8cec-3ff995db3a25",
      "name": "Brisbane Indigenous Youth Hub",
      "description": "Culturally appropriate support services for Aboriginal and Torres Strait Islander young people including cultural programs, mentoring, education support, family services, and connection to country activities.",
      "categories": [
        "cultural_support",
        "indigenous_services",
        "mentoring",
        "family_support"
      ],
      "keywords": [
        "aboriginal",
        "torres strait islander",
        "indigenous",
        "cultural",
        "mentoring",
        "family"
      ],
      "minimum_age": 12,
      "maximum_age": 25,
      "youth_specific": true,
      "indigenous_specific": true,
      "data_source": "indigenous_services_mega",
      "status": "active",
      "location": {
        "name": "Brisbane Indigenous Youth Hub",
        "address": "393 Ann Street, Brisbane QLD 4000",
        "city": "Brisbane",
        "state": "QLD",
        "postcode": "4000",
        "region": "brisbane",
        "coordinates": null
      },
      "contact": {
        "phone": "(07) 3025 3800",
        "email": "youth@aboriginalandtorresstraitislandercorporationforyouth.org.au"
      }
    },
    {
      "id": "92ac42b4-a2ec-4bf1-a0cc-dc422e3a9ca7",
      "organization_id": "9543c899-bed2-4430-8cec-3ff995db3a25",
      "name": "Logan Indigenous Community Centre",
      "description": "Culturally appropriate support services for Aboriginal and Torres Strait Islander young people including cultural programs, mentoring, education support, family services, and connection to country activities.",
      "categories": [
        "cultural_support",
        "indigenous_services",
        "mentoring",
        "family_support"
      ],
      "keywords": [
        "aboriginal",
        "torres strait islander",
        "indigenous",
        "cultural",
        "mentoring",
        "family"
      ],
      "minimum_age": 12,
      "maximum_age": 25,
      "youth_specific": true,
      "indigenous_specific": true,
      "data_source": "indigenous_services_mega",
      "status": "active",
      "location": {
        "name": "Logan Indigenous Community Centre",
        "address": "38 Wembley Road, Logan Central QLD 4114",
        "city": "Logan",
        "state": "QLD",
        "postcode": "4114",
        "region": "logan",
        "coordinates": null
      },
      "contact": {
        "phone": "(07) 3299 4500",
        "email": "youth@aboriginalandtorresstraitislandercorporationforyouth.org.au"
      }
    },
    {
      "id": "c6abd4ae-095b-457f-92f5-b58b98e1841d",
      "organization_id": "9543c899-bed2-4430-8cec-3ff995db3a25",
      "name": "Gold Coast Aboriginal Youth Services",
      "description": "Culturally appropriate support services for Aboriginal and Torres Strait Islander young people including cultural programs, mentoring, education support, family services, and connection to country activities.",
      "categories": [
        "cultural_support",
        "indigenous_services",
        "mentoring",
        "family_support"
      ],
      "keywords": [
        "aboriginal",
        "torres strait islander",
        "indigenous",
        "cultural",
        "mentoring",
        "family"
      ],
      "minimum_age": 12,
      "maximum_age": 25,
      "youth_specific": true,
      "indigenous_specific": true,
      "data_source": "indigenous_services_mega",
      "status": "active",
      "location": {
        "name": "Gold Coast Aboriginal Youth Services",
        "address": "32 Beryl Street, Southport QLD 4215",
        "city": "Queensland",
        "state": "QLD",
        "postcode": "4215",
        "region": "gold_coast",
        "coordinates": null
      },
      "contact": {
        "phone": "(07) 5591 4200",
        "email": "youth@aboriginalandtorresstraitislandercorporationforyouth.org.au"
      }
    },
    {
      "id": "f00c9f7a-a575-4b5a-888b-236a9389af68",
      "organization_id": "9543c899-bed2-4430-8cec-3ff995db3a25",
      "name": "Cairns Torres Strait Islander Corporation",
      "description": "Culturally appropriate support services for Aboriginal and Torres Strait Islander young people including cultural programs, mentoring, education support, family services, and connection to country activities.",
      "categories": [
        "cultural_support",
        "indigenous_services",
        "mentoring",
        "family_support"
      ],
      "keywords": [
        "aboriginal",
        "torres strait islander",
        "indigenous",
        "cultural",
        "mentoring",
        "family"
      ],
      "minimum_age": 12,
      "maximum_age": 25,
      "youth_specific": true,
      "indigenous_specific": true,
      "data_source": "indigenous_services_mega",
      "status": "active",
      "location": {
        "name": "Cairns Torres Strait Islander Corporation",
        "address": "142 Abbott Street, Cairns QLD 4870",
        "city": "Cairns",
        "state": "QLD",
        "postcode": "4870",
        "region": "cairns",
        "coordinates": null
      },
      "contact": {
        "phone": "(07) 4031 8800",
        "email": "youth@aboriginalandtorresstraitislandercorporationforyouth.org.au"
      }
    },
    {
      "id": "da67fbe2-c0aa-4b29-8fd6-66776f04e845",
      "organization_id": "9543c899-bed2-4430-8cec-3ff995db3a25",
      "name": "Townsville Aboriginal Youth Centre",
      "description": "Culturally appropriate support services for Aboriginal and Torres Strait Islander young people including cultural programs, mentoring, education support, family services, and connection to country activities.",
      "categories": [
        "cultural_support",
        "indigenous_services",
        "mentoring",
        "family_support"
      ],
      "keywords": [
        "aboriginal",
        "torres strait islander",
        "indigenous",
        "cultural",
        "mentoring",
        "family"
      ],
      "minimum_age": 12,
      "maximum_age": 25,
      "youth_specific": true,
      "indigenous_specific": true,
      "data_source": "indigenous_services_mega",
      "status": "active",
      "location": {
        "name": "Townsville Aboriginal Youth Centre",
        "address": "67 Denham Street, Townsville QLD 4810",
        "city": "Townsville",
        "state": "QLD",
        "postcode": "4810",
        "region": "townsville",
        "coordinates": null
      },
      "contact": {
        "phone": "(07) 4721 5500",
        "email": "youth@aboriginalandtorresstraitislandercorporationforyouth.org.au"
      }
    },
    {
      "id": "30bebaa2-3fa9-48c1-b678-4f67472a06ac",
      "organization_id": "9543c899-bed2-4430-8cec-3ff995db3a25",
      "name": "Mount Isa Indigenous Services",
      "description": "Culturally appropriate support services for Aboriginal and Torres Strait Islander young people including cultural programs, mentoring, education support, family services, and connection to country activities.",
      "categories": [
        "cultural_support",
        "indigenous_services",
        "mentoring",
        "family_support"
      ],
      "keywords": [
        "aboriginal",
        "torres strait islander",
        "indigenous",
        "cultural",
        "mentoring",
        "family"
      ],
      "minimum_age": 12,
      "maximum_age": 25,
      "youth_specific": true,
      "indigenous_specific": true,
      "data_source": "indigenous_services_mega",
      "status": "active",
      "location": {
        "name": "Mount Isa Indigenous Services",
        "address": "19 Simpson Street, Mount Isa QLD 4825",
        "city": "Mount Isa",
        "state": "QLD",
        "postcode": "4825",
        "region": "mount_isa",
        "coordinates": null
      },
      "contact": {
        "phone": "(07) 4743 5200",
        "email": "youth@aboriginalandtorresstraitislandercorporationforyouth.org.au"
      }
    },
    {
      "id": "f4f8bfbe-d342-463e-91ee-c7320ca0aa52",
      "organization_id": "1f9c76f2-d771-4509-8e9a-86d9b1c231ff",
      "name": "Brisbane Murri Youth Services",
      "description": "Culturally appropriate support services for Aboriginal and Torres Strait Islander young people including cultural programs, mentoring, education support, family services, and connection to country activities.",
      "categories": [
        "cultural_support",
        "indigenous_services",
        "mentoring",
        "family_support"
      ],
      "keywords": [
        "aboriginal",
        "torres strait islander",
        "indigenous",
        "cultural",
        "mentoring",
        "family"
      ],
      "minimum_age": 12,
      "maximum_age": 25,
      "youth_specific": true,
      "indigenous_specific": true,
      "data_source": "indigenous_services_mega",
      "status": "active",
      "location": {
        "name": "Brisbane Murri Youth Services",
        "address": "25 Elizabeth Street, Brisbane QLD 4000",
        "city": "Brisbane",
        "state": "QLD",
        "postcode": "4000",
        "region": "brisbane",
        "coordinates": null
      },
      "contact": {
        "phone": "(07) 3253 8500",
        "email": "youth@murriyouthnetworkqueensland.org.au"
      }
    },
    {
      "id": "336c164c-de51-44e4-b1d1-cfa90e5476fc",
      "organization_id": "1f9c76f2-d771-4509-8e9a-86d9b1c231ff",
      "name": "Ipswich Aboriginal Youth Hub",
      "description": "Culturally appropriate support services for Aboriginal and Torres Strait Islander young people including cultural programs, mentoring, education support, family services, and connection to country activities.",
      "categories": [
        "cultural_support",
        "indigenous_services",
        "mentoring",
        "family_support"
      ],
      "keywords": [
        "aboriginal",
        "torres strait islander",
        "indigenous",
        "cultural",
        "mentoring",
        "family"
      ],
      "minimum_age": 12,
      "maximum_age": 25,
      "youth_specific": true,
      "indigenous_specific": true,
      "data_source": "indigenous_services_mega",
      "status": "active",
      "location": {
        "name": "Ipswich Aboriginal Youth Hub",
        "address": "8 Roderick Street, Ipswich QLD 4305",
        "city": "Ipswich",
        "state": "QLD",
        "postcode": "4305",
        "region": "ipswich",
        "coordinates": null
      },
      "contact": {
        "phone": "(07) 3282 7700",
        "email": "youth@murriyouthnetworkqueensland.org.au"
      }
    },
    {
      "id": "cf23aca5-eaf2-454d-9a96-b270856a56b7",
      "organization_id": "1f9c76f2-d771-4509-8e9a-86d9b1c231ff",
      "name": "Toowoomba Indigenous Youth Centre",
      "description": "Culturally appropriate support services for Aboriginal and Torres Strait Islander young people including cultural programs, mentoring, education support, family services, and connection to country activities.",
      "categories": [
        "cultural_support",
        "indigenous_services",
        "mentoring",
        "family_support"
      ],
      "keywords": [
        "aboriginal",
        "torres strait islander",
        "indigenous",
        "cultural",
        "mentoring",
        "family"
      ],
      "minimum_age": 12,
      "maximum_age": 25,
      "youth_specific": true,
      "indigenous_specific": true,
      "data_source": "indigenous_services_mega",
      "status": "active",
      "location": {
        "name": "Toowoomba Indigenous Youth Centre",
        "address": "154 Hume Street, Toowoomba QLD 4350",
        "city": "Toowoomba",
        "state": "QLD",
        "postcode": "4350",
        "region": "toowoomba",
        "coordinates": null
      },
      "contact": {
        "phone": "(07) 4634 9900",
        "email": "youth@murriyouthnetworkqueensland.org.au"
      }
    }
  ]
}